{"status_code":200,"data":{"places":[{"id":"poi:15038618","level":"poi","rating":0.0071280722137814,"quadkey":"300303023321203133","location":{"lat":-29.4344645,"lng":29.288265},"bounding_box":null,"name":"Drakensberg","name_suffix":"Lesotho","url":"https://travel.sygic.com/go/poi:15038618","duration":3600,"marker":"sightseeing","categories":["sightseeing"],"parent_ids":["country:133","continent:2"],"perex":"The Drakensberg is the name given to the eastern portion of the Great Escarpment, which encloses the central Southern African plateau.","customer_rating":null,"star_rating":null,"star_rating_unofficial":null,"thumbnail_url":"https://media-cdn.sygictraveldata.com/media/poi:15038618"},{"id":"poi:15184485","level":"poi","rating":0.0048937349182233,"quadkey":"300303022302032121","location":{"lat":-29.337515,"lng":28.5060754},"bounding_box":null,"name":"Katse Dam","name_suffix":"Lesotho","url":"https://travel.sygic.com/go/poi:15184485","duration":3600,"marker":"other:water:dam","categories":[],"parent_ids":["country:133","continent:2"],"perex":"The Katse Dam, a concrete arch dam on the Malibamat'so River in Lesotho, is Africa's second largest double-curvature arch dam..","customer_rating":null,"star_rating":null,"star_rating_unofficial":null,"thumbnail_url":"https://media-cdn.sygictraveldata.com/media/poi:15184485"},{"id":"poi:9274932","level":"poi","rating":0.004,"quadkey":"300303023302021222","location":{"lat":-29.3332019,"lng":29.1916273},"bounding_box":null,"name":"Malefiloane Airstrip","name_suffix":"Lesotho","url":"https://travel.sygic.com/go/poi:9274932","duration":7200,"marker":"traveling:airport","categories":["traveling"],"parent_ids":["country:133","continent:2"],"perex":"Malefiloane Airstrip is an airstrip serving the village of Malefiloane in Mokhotlong District, Lesotho.","customer_rating":null,"star_rating":null,"star_rating_unofficial":null,"thumbnail_url":null},{"id":"poi:5115557","level":"poi","rating":0.004,"quadkey":"300303020233332230","location":{"lat":-28.9192501,"lng":28.457556},"bounding_box":null,"name":"Ts'ehlanyane National Park","name_suffix":"Ts'ehlanyane National Park, Lesotho","url":"https://travel.sygic.com/go/poi:5115557","duration":14400,"marker":"default","categories":[],"parent_ids":["region:1931078","country:133","continent:2"],"perex":"Ts'ehlanyane National Park is Lesotho's largest National Park and is located in the Maloti Mountains in Butha-Buthe District, Lesotho, and…","customer_rating":null,"star_rating":null,"star_rating_unofficial":null,"thumbnail_url":"https://media-cdn.sygictraveldata.com/media/poi:5115557"},{"id":"poi:12551964","level":"poi","rating":0.004,"quadkey":"300302133301002302","location":{"lat":-29.2444895,"lng":27.8668203},"bounding_box":null,"name":"Ha Kome Cave Dwellings","name_suffix":"Lesotho","url":"https://travel.sygic.com/go/poi:12551964","duration":3600,"marker":"sleeping:camp_site","categories":["shopping","sleeping","hiking"],"parent_ids":["country:133","continent:2"],"perex":"The Kome Caves are a group of cave dwellings made out of mud in the district of Berea, Lesotho.","customer_rating":null,"star_rating":null,"star_rating_unofficial":null,"thumbnail_url":"https://media-cdn.sygictraveldata.com/media/poi:12551964"},{"id":"poi:15113452","level":"poi","rating":0.004,"quadkey":"300302133331323233","location":{"lat":-29.458489,"lng":28.096992},"bounding_box":null,"name":"Mohale Dam wall","name_suffix":"Lesotho","url":"https://travel.sygic.com/go/poi:15113452","duration":3600,"marker":"other:water:dam","categories":[],"parent_ids":["country:133","continent:2"],"perex":"Mohale Dam is a concrete faced rock-fill dam in Lesotho. It is the second dam, under Phase 1B of the series of dams of the proposed Lesotho…","customer_rating":null,"star_rating":null,"star_rating_unofficial":null,"thumbnail_url":"https://media-cdn.sygictraveldata.com/media/poi:15113452"},{"id":"poi:21583504","level":"poi","rating":0.004,"quadkey":"300303022302032121","location":{"lat":-29.3375131,"lng":28.5060783},"bounding_box":null,"name":"Katse Dam","name_suffix":"Lesotho","url":"https://travel.sygic.com/go/poi:21583504","duration":3600,"marker":"other:water:dam","categories":[],"parent_ids":["country:133","continent:2"],"perex":"The Katse Dam, a concrete arch dam on the Malibamat'so River in Lesotho, is Africa's second largest double-curvature arch dam..","customer_rating":null,"star_rating":null,"star_rating_unofficial":null,"thumbnail_url":"https://media-cdn.sygictraveldata.com/media/poi:21583504"},{"id":"poi:11785801","level":"poi","rating":0.004,"quadkey":"300303022122020100","location":{"lat":-29.1725043,"lng":28.4828807},"bounding_box":null,"name":"Intake Tower Water","name_suffix":"Ha Thibeli, Lesotho","url":"https://travel.sygic.com/go/poi:11785801","duration":900,"marker":"sightseeing:tower","categories":[],"parent_ids":["region:1046796","country:133","continent:2"],"perex":"The Katse Dam, a concrete arch dam on the Malibamat'so River in Lesotho, is Africa's second largest double-curvature arch dam..","customer_rating":null,"star_rating":null,"star_rating_unofficial":null,"thumbnail_url":"https://media-cdn.sygictraveldata.com/media/poi:11785801"},{"id":"poi:21756177","level":"poi","rating":0.004,"quadkey":"300303022302032121","location":{"lat":-29.3375826,"lng":28.5061334},"bounding_box":null,"name":"Katse Dam","name_suffix":"Lesotho","url":"https://travel.sygic.com/go/poi:21756177","duration":3600,"marker":"other:water:dam","categories":[],"parent_ids":["country:133","continent:2"],"perex":"The Katse Dam, a concrete arch dam on the Malibamat'so River in Lesotho, is Africa's second largest double-curvature arch dam..","customer_rating":null,"star_rating":null,"star_rating_unofficial":null,"thumbnail_url":"https://media-cdn.sygictraveldata.com/media/poi:21756177"},{"id":"poi:21758355","level":"poi","rating":0.004,"quadkey":"300302133331323233","location":{"lat":-29.4585139,"lng":28.0969828},"bounding_box":null,"name":"Mohale Dam","name_suffix":"Maseru, Lesotho","url":"https://travel.sygic.com/go/poi:21758355","duration":3600,"marker":"other:water:dam","categories":[],"parent_ids":["region:2010571","country:133","continent:2"],"perex":"Mohale Dam is a concrete faced rock-fill dam in Lesotho. It is the second dam, under Phase 1B of the series of dams of the proposed Lesotho…","customer_rating":null,"star_rating":null,"star_rating_unofficial":null,"thumbnail_url":"https://media-cdn.sygictraveldata.com/media/poi:21758355"},{"id":"poi:7488888","level":"poi","rating":0.0038937349182233,"quadkey":"300302133212312102","location":{"lat":-29.3556386,"lng":27.6702589},"bounding_box":null,"name":"Thaba-Bosiu","name_suffix":"Maseru, Lesotho","url":"https://travel.sygic.com/go/poi:7488888","duration":3600,"marker":"sightseeing","categories":["sightseeing"],"parent_ids":["region:2010571","country:133","continent:2"],"perex":"Thaba Bosiu is a sandstone plateau with an area of approximately 2 km2 and a height of 1,804 meters above sea level.","customer_rating":null,"star_rating":null,"star_rating_unofficial":null,"thumbnail_url":null},{"id":"poi:16551094","level":"poi","rating":0.0034468674591116,"quadkey":"300302311311021232","location":{"lat":-29.86824,"lng":28.0512712},"bounding_box":null,"name":"Maletsunyane Falls","name_suffix":"Semonkong, Lesotho","url":"https://travel.sygic.com/go/poi:16551094","duration":1800,"marker":"hiking:waterfall","categories":["hiking"],"parent_ids":["city:1318","country:133","continent:2"],"perex":"Maletsunyane Falls is a 192-metre-high waterfall in the Southern African country Lesotho.","customer_rating":null,"star_rating":null,"star_rating_unofficial":null,"thumbnail_url":null},{"id":"poi:5617942","level":"poi","rating":0.003,"quadkey":"300302133202112103","location":{"lat":-29.3169142,"lng":27.495418},"bounding_box":null,"name":"Roman Catholic Church Cathedral","name_suffix":"Maseru, Lesotho","url":"https://travel.sygic.com/go/poi:5617942","duration":1800,"marker":"other:place_of_worship","categories":[],"parent_ids":["city:1314","region:2010571","country:133","continent:2"],"perex":"The Our Lady of Victories Cathedral or simply Cathedral of Maseru, is the name given to a religious building that is affiliated with the…","customer_rating":null,"star_rating":null,"star_rating_unofficial":null,"thumbnail_url":null},{"id":"poi:10505749","level":"poi","rating":0.003,"quadkey":"300303023323000223","location":{"lat":-29.468173,"lng":29.2691717},"bounding_box":null,"name":"Thabana Ntlenyana","name_suffix":"Lesotho","url":"https://travel.sygic.com/go/poi:10505749","duration":3600,"marker":"hiking:mountains:peak","categories":["hiking"],"parent_ids":["country:133","continent:2"],"perex":"Thabana Ntlenyana, which literally means \"Beautiful little mountain\" in Sesotho, is the highest point in Lesotho and the highest mountain…","customer_rating":null,"star_rating":null,"star_rating_unofficial":null,"thumbnail_url":null},{"id":"poi:5055374","level":"poi","rating":0.003,"quadkey":"300303023312233013","location":{"lat":-29.3743125,"lng":29.3937967},"bounding_box":null,"name":"UKhahlamba-Drakensberg Park","name_suffix":"Lesotho","url":"https://travel.sygic.com/go/poi:5055374","duration":14400,"marker":"default","categories":[],"parent_ids":["country:133","continent:2"],"perex":"The uKhahlamba-Drakensberg Park is in the KwaZulu-Natal province of South Africa, covering 242,813 ha of area.","customer_rating":null,"star_rating":null,"star_rating_unofficial":null,"thumbnail_url":null},{"id":"poi:16551098","level":"poi","rating":0.003,"quadkey":"300302311121301313","location":{"lat":-29.7322713,"lng":27.9263463},"bounding_box":null,"name":"Thaba Putsoa","name_suffix":"Maseru, Lesotho","url":"https://travel.sygic.com/go/poi:16551098","duration":3600,"marker":"hiking:mountains:peak","categories":["hiking"],"parent_ids":["region:2010571","country:133","continent:2"],"perex":"Thaba Putsoa is a mountain in the Maseru District of Lesotho. It lies along the road to the Mohale Dam, approximately 70 kilometres to the…","customer_rating":null,"star_rating":null,"star_rating_unofficial":null,"thumbnail_url":null},{"id":"poi:8976562","level":"poi","rating":0.003,"quadkey":"300303020330312312","location":{"lat":-28.8227245,"lng":28.7274623},"bounding_box":null,"name":"Afri-Ski Resort","name_suffix":"Lesotho","url":"https://travel.sygic.com/go/poi:8976562","duration":7200,"marker":"sports:winter:skiing","categories":["doing_sports"],"parent_ids":["country:133","continent:2"],"perex":"Afriski is the only skiing resort in Lesotho, located 3050 m above sea-level in the Maluti Mountains, operating in Southern Africa near the…","customer_rating":null,"star_rating":null,"star_rating_unofficial":null,"thumbnail_url":null},{"id":"poi:10191587","level":"poi","rating":0.003,"quadkey":"300302311002113311","location":{"lat":-29.6263121,"lng":27.5088474},"bounding_box":null,"name":"Morija Museum & Archives","name_suffix":"Lesotho","url":"https://travel.sygic.com/go/poi:10191587","duration":7200,"marker":"discovering:museum","categories":["discovering"],"parent_ids":["country:133","continent:2"],"perex":"Morija Museum & Archives, also known as Morija Museum, is located in Morija, a large village in the Maseru district of Lesotho.","customer_rating":null,"star_rating":null,"star_rating_unofficial":null,"thumbnail_url":null},{"id":"poi:11041958","level":"poi","rating":0.003,"quadkey":"300303023132322323","location":{"lat":-29.2287354,"lng":29.4063717},"bounding_box":null,"name":"Popple","name_suffix":"Lesotho","url":"https://travel.sygic.com/go/poi:11041958","duration":3600,"marker":"hiking:mountains:peak","categories":["hiking"],"parent_ids":["country:133","continent:2"],"perex":"Popple Peak is a mountain in the Drakensberg range, South Africa. It is located on the border between South Africa and Lesotho, on the…","customer_rating":null,"star_rating":null,"star_rating_unofficial":null,"thumbnail_url":null},{"id":"poi:5112134","level":"poi","rating":0.003,"quadkey":"300303201211221132","location":{"lat":-29.9019356,"lng":29.1119741},"bounding_box":null,"name":"Sehlabathebe National Park","name_suffix":"Sehlabathebe National Park, Lesotho","url":"https://travel.sygic.com/go/poi:5112134","duration":14400,"marker":"default","categories":[],"parent_ids":["region:1947891","country:133","continent:2"],"perex":"The Sehlabathebe National Park is located in the Maloti Mountains in Qacha's Nek District, Lesotho, and is part of the larger Maloti…","customer_rating":null,"star_rating":null,"star_rating_unofficial":null,"thumbnail_url":null},{"id":"poi:7068761","level":"poi","rating":0.0028937349182233,"quadkey":"300303020233322012","location":{"lat":-28.9143739,"lng":28.4359757},"bounding_box":null,"name":"Maliba Lodge","name_suffix":"Ts'ehlanyane National Park, Lesotho","url":"https://travel.sygic.com/go/poi:7068761","duration":3600,"marker":"sleeping:hotel","categories":["sleeping"],"parent_ids":["region:1931078","country:133","continent:2"],"perex":null,"customer_rating":null,"star_rating":null,"star_rating_unofficial":null,"thumbnail_url":null},{"id":"poi:5912299","level":"poi","rating":0.0028937349182233,"quadkey":"300302311032220203","location":{"lat":-29.82806,"lng":27.6002682},"bounding_box":null,"name":"Malealea Lodge","name_suffix":"Lesotho","url":"https://travel.sygic.com/go/poi:5912299","duration":3600,"marker":"sleeping:hostel","categories":["sleeping","eating"],"parent_ids":["country:133","continent:2"],"perex":null,"customer_rating":null,"star_rating":null,"star_rating_unofficial":null,"thumbnail_url":null},{"id":"poi:7070876","level":"poi","rating":0.0024468674591116,"quadkey":"300302133202103003","location":{"lat":-29.3167865,"lng":27.4782234},"bounding_box":null,"name":"Pioneer Mall","name_suffix":"Maseru, Lesotho","url":"https://travel.sygic.com/go/poi:7070876","duration":5400,"marker":"shopping:centre:mall","categories":["shopping"],"parent_ids":["region:954002","city:1314","country:133","continent:2"],"perex":null,"customer_rating":null,"star_rating":null,"star_rating_unofficial":null,"thumbnail_url":null},{"id":"poi:16649606","level":"poi","rating":0.002,"quadkey":"300303022302032021","location":{"lat":-29.3376609,"lng":28.5001756},"bounding_box":null,"name":"Highlands Trout Farm","name_suffix":"Lesotho","url":"https://travel.sygic.com/go/poi:16649606","duration":3600,"marker":"shopping","categories":["shopping"],"parent_ids":["country:133","continent:2"],"perex":null,"customer_rating":null,"star_rating":null,"star_rating_unofficial":null,"thumbnail_url":null},{"id":"poi:7053228","level":"poi","rating":0.002,"quadkey":"300302133202112020","location":{"lat":-29.3184421,"lng":27.4885061},"bounding_box":null,"name":"avani Lesotho","name_suffix":"Maseru, Lesotho","url":"https://travel.sygic.com/go/poi:7053228","duration":3600,"marker":"sleeping:hotel","categories":["sleeping"],"parent_ids":["city:1314","region:2010571","country:133","continent:2"],"perex":null,"customer_rating":null,"star_rating":null,"star_rating_unofficial":null,"thumbnail_url":null},{"id":"poi:19225741","level":"poi","rating":0.002,"quadkey":"300302133231221121","location":{"lat":-29.4423311,"lng":27.7037708},"bounding_box":null,"name":"Roma Trading Posr Camp Site 2","name_suffix":"Mafikeng, Lesotho","url":"https://travel.sygic.com/go/poi:19225741","duration":3600,"marker":"sleeping:camp_site","categories":["hiking","sleeping"],"parent_ids":["city:1035489","country:133","continent:2"],"perex":null,"customer_rating":null,"star_rating":null,"star_rating_unofficial":null,"thumbnail_url":null},{"id":"poi:18896148","level":"poi","rating":0.002,"quadkey":"300302133231221121","location":{"lat":-29.4425968,"lng":27.703469},"bounding_box":null,"name":"Roma Trading Post Lodge","name_suffix":"Mafikeng, Lesotho","url":"https://travel.sygic.com/go/poi:18896148","duration":3600,"marker":"sleeping:hotel","categories":["sleeping"],"parent_ids":["city:1035489","country:133","continent:2"],"perex":null,"customer_rating":null,"star_rating":null,"star_rating_unofficial":null,"thumbnail_url":null},{"id":"poi:15207104","level":"poi","rating":0.002,"quadkey":"300302133031330102","location":{"lat":-29.1348865,"lng":27.7570896},"bounding_box":null,"name":"Church","name_suffix":"Teyateyaneng, Lesotho","url":"https://travel.sygic.com/go/poi:15207104","duration":1800,"marker":"other:place_of_worship:church","categories":[],"parent_ids":["city:435321","country:133","continent:2"],"perex":null,"customer_rating":null,"star_rating":null,"star_rating_unofficial":null,"thumbnail_url":null},{"id":"poi:8955592","level":"poi","rating":0.002,"quadkey":"300303020321110130","location":{"lat":-28.7712454,"lng":28.6392332},"bounding_box":null,"name":"New Oxbow Lodge","name_suffix":"Oxbow, Lesotho","url":"https://travel.sygic.com/go/poi:8955592","duration":3600,"marker":"eating:restaurant","categories":["eating","sleeping"],"parent_ids":["region:1304762","country:133","continent:2"],"perex":null,"customer_rating":null,"star_rating":null,"star_rating_unofficial":null,"thumbnail_url":null},{"id":"poi:13240987","level":"poi","rating":0.002,"quadkey":"300302133033101010","location":{"lat":-29.1523884,"lng":27.7433287},"bounding_box":null,"name":"FNB","name_suffix":"Teyateyaneng, Lesotho","url":"https://travel.sygic.com/go/poi:13240987","duration":900,"marker":"other:bank","categories":[],"parent_ids":["city:435321","country:133","continent:2"],"perex":null,"customer_rating":null,"star_rating":null,"star_rating_unofficial":null,"thumbnail_url":null},{"id":"poi:19225740","level":"poi","rating":0.002,"quadkey":"300302133231221121","location":{"lat":-29.4424991,"lng":27.7041645},"bounding_box":null,"name":"Roma Trading Post Lodge Camp Site","name_suffix":"Mafikeng, Lesotho","url":"https://travel.sygic.com/go/poi:19225740","duration":3600,"marker":"sleeping:camp_site","categories":["hiking","sleeping"],"parent_ids":["city:1035489","country:133","continent:2"],"perex":null,"customer_rating":null,"star_rating":null,"star_rating_unofficial":null,"thumbnail_url":null},{"id":"poi:8114722","level":"poi","rating":0.002,"quadkey":"300302311011333202","location":{"lat":-29.6083161,"lng":27.7626628},"bounding_box":null,"name":"Casa Tumi Guest House","name_suffix":"Ha Motjotji, Lesotho","url":"https://travel.sygic.com/go/poi:8114722","duration":3600,"marker":"sleeping:apartment:guest_accommodation","categories":["sleeping"],"parent_ids":["region:1897038","country:133","continent:2"],"perex":null,"customer_rating":null,"star_rating":null,"star_rating_unofficial":null,"thumbnail_url":null},{"id":"poi:19993356","level":"poi","rating":0.002,"quadkey":"300302133202103003","location":{"lat":-29.3167896,"lng":27.47826},"bounding_box":null,"name":"Pioneer Mall","name_suffix":"Maseru, Lesotho","url":"https://travel.sygic.com/go/poi:19993356","duration":5400,"marker":"shopping:centre:mall","categories":["shopping"],"parent_ids":["region:954002","city:1314","region:2010571","country:133","continent:2"],"perex":null,"customer_rating":null,"star_rating":null,"star_rating_unofficial":null,"thumbnail_url":null},{"id":"poi:6759064","level":"poi","rating":0.002,"quadkey":"300302133333030010","location":{"lat":-29.4783009,"lng":28.0620481},"bounding_box":null,"name":"Mohale Lodge","name_suffix":"Lesotho","url":"https://travel.sygic.com/go/poi:6759064","duration":3600,"marker":"sleeping:hotel","categories":["sleeping"],"parent_ids":["country:133","continent:2"],"perex":null,"customer_rating":null,"star_rating":null,"star_rating_unofficial":null,"thumbnail_url":null},{"id":"poi:18993659","level":"poi","rating":0.002,"quadkey":"300302133031233012","location":{"lat":-29.1443195,"lng":27.7219691},"bounding_box":null,"name":"National Drug Service Organization, Teyateyaneng","name_suffix":"Teyateyaneng, Lesotho","url":"https://travel.sygic.com/go/poi:18993659","duration":900,"marker":"other:pharmacy","categories":["shopping"],"parent_ids":["city:435321","country:133","continent:2"],"perex":null,"customer_rating":null,"star_rating":null,"star_rating_unofficial":null,"thumbnail_url":null},{"id":"poi:12556193","level":"poi","rating":0.0018937349182233,"quadkey":"300302131331213231","location":{"lat":-28.8234554,"lng":28.0750415},"bounding_box":null,"name":"Subeng Dinosaur Prints","name_suffix":"Lesotho","url":"https://travel.sygic.com/go/poi:12556193","duration":1800,"marker":"sightseeing:archaeological_site","categories":["sightseeing"],"parent_ids":["country:133","continent:2"],"perex":null,"customer_rating":null,"star_rating":null,"star_rating_unofficial":null,"thumbnail_url":null},{"id":"poi:19303319","level":"poi","rating":0.0014468674591116,"quadkey":"300302311311023200","location":{"lat":-29.8746783,"lng":28.0493188},"bounding_box":null,"name":"Maletsunyane Falls View","name_suffix":"Semonkong, Lesotho","url":"https://travel.sygic.com/go/poi:19303319","duration":900,"marker":"hiking:viewpoint","categories":[],"parent_ids":["city:1318","country:133","continent:2"],"perex":null,"customer_rating":null,"star_rating":null,"star_rating_unofficial":null,"thumbnail_url":null},{"id":"poi:8929790","level":"poi","rating":0.0014468674591116,"quadkey":"300303201101201322","location":{"lat":-29.5821255,"lng":29.2842318},"bounding_box":null,"name":"Sani Top Backpackers","name_suffix":"Lesotho","url":"https://travel.sygic.com/go/poi:8929790","duration":3600,"marker":"sleeping:hostel","categories":["sleeping"],"parent_ids":["country:133","continent:2"],"perex":null,"customer_rating":null,"star_rating":null,"star_rating_unofficial":null,"thumbnail_url":null},{"id":"poi:17710784","level":"poi","rating":0.0014468674591116,"quadkey":"300303201101213011","location":{"lat":-29.5833631,"lng":29.3056565},"bounding_box":null,"name":"Twelve Apostles","name_suffix":"KwaZulu-Natal, Lesotho","url":"https://travel.sygic.com/go/poi:17710784","duration":3600,"marker":"hiking:mountains:peak","categories":["hiking"],"parent_ids":["region:26538","region:1930550","region:26488","country:133","region:24176","continent:2"],"perex":null,"customer_rating":null,"star_rating":null,"star_rating_unofficial":null,"thumbnail_url":null},{"id":"poi:21296219","level":"poi","rating":0.001,"quadkey":"300303023012112220","location":{"lat":-29.0155467,"lng":29.0706544},"bounding_box":null,"name":"Ruins","name_suffix":"Lesotho","url":"https://travel.sygic.com/go/poi:21296219","duration":1800,"marker":"sightseeing:ruins","categories":["sightseeing"],"parent_ids":["country:133","continent:2"],"perex":null,"customer_rating":null,"star_rating":null,"star_rating_unofficial":null,"thumbnail_url":null},{"id":"poi:21309030","level":"poi","rating":0.001,"quadkey":"300303022123132201","location":{"lat":-29.1864127,"lng":28.6330279},"bounding_box":null,"name":"Ruins","name_suffix":"Lesotho","url":"https://travel.sygic.com/go/poi:21309030","duration":1800,"marker":"sightseeing:ruins","categories":["sightseeing"],"parent_ids":["country:133","continent:2"],"perex":null,"customer_rating":null,"star_rating":null,"star_rating_unofficial":null,"thumbnail_url":null},{"id":"poi:24698193","level":"poi","rating":0.001,"quadkey":"300302133202110231","location":{"lat":-29.3134908,"lng":27.4930603},"bounding_box":null,"name":"S & T Pharmacy","name_suffix":"Maseru, Lesotho","url":"https://travel.sygic.com/go/poi:24698193","duration":900,"marker":"other:pharmacy","categories":["shopping"],"parent_ids":["city:1314","region:2010571","country:133","continent:2"],"perex":null,"customer_rating":null,"star_rating":null,"star_rating_unofficial":null,"thumbnail_url":null},{"id":"poi:24698347","level":"poi","rating":0.001,"quadkey":"300302133203022210","location":{"lat":-29.3394423,"lng":27.5129867},"bounding_box":null,"name":"Opti-Care Pharmacy & Chemist","name_suffix":"Maseru, Lesotho","url":"https://travel.sygic.com/go/poi:24698347","duration":900,"marker":"other:pharmacy","categories":["shopping"],"parent_ids":["city:1314","region:2010571","country:133","continent:2"],"perex":null,"customer_rating":null,"star_rating":null,"star_rating_unofficial":null,"thumbnail_url":null},{"id":"poi:22278088","level":"poi","rating":0.001,"quadkey":"300302133232013113","location":{"lat":-29.4706504,"lng":27.6414766},"bounding_box":null,"name":"Ruins","name_suffix":"Maseru, Lesotho","url":"https://travel.sygic.com/go/poi:22278088","duration":1800,"marker":"sightseeing:ruins","categories":["sightseeing"],"parent_ids":["region:2010571","country:133","continent:2"],"perex":null,"customer_rating":null,"star_rating":null,"star_rating_unofficial":null,"thumbnail_url":null},{"id":"poi:22278093","level":"poi","rating":0.001,"quadkey":"300302133232013131","location":{"lat":-29.4708378,"lng":27.6414624},"bounding_box":null,"name":"Ruins","name_suffix":"Maseru, Lesotho","url":"https://travel.sygic.com/go/poi:22278093","duration":1800,"marker":"sightseeing:ruins","categories":["sightseeing"],"parent_ids":["region:2010571","country:133","continent:2"],"perex":null,"customer_rating":null,"star_rating":null,"star_rating_unofficial":null,"thumbnail_url":null},{"id":"poi:16340122","level":"poi","rating":0.001,"quadkey":"300302310132003131","location":{"lat":-29.7770747,"lng":27.266722},"bounding_box":null,"name":"Toilets","name_suffix":"Lesotho","url":"https://travel.sygic.com/go/poi:16340122","duration":300,"marker":"other:toilets","categories":[],"parent_ids":["country:133","continent:2"],"perex":null,"customer_rating":null,"star_rating":null,"star_rating_unofficial":null,"thumbnail_url":null},{"id":"poi:24413499","level":"poi","rating":0.001,"quadkey":"300302313003102130","location":{"lat":-30.2336412,"lng":27.5624961},"bounding_box":null,"name":"Ruins","name_suffix":"Lesotho","url":"https://travel.sygic.com/go/poi:24413499","duration":1800,"marker":"sightseeing:ruins","categories":["sightseeing"],"parent_ids":["country:133","continent:2"],"perex":null,"customer_rating":null,"star_rating":null,"star_rating_unofficial":null,"thumbnail_url":null},{"id":"poi:19533336","level":"poi","rating":0.001,"quadkey":"300303022222111032","location":{"lat":-29.4633664,"lng":28.2051288},"bounding_box":null,"name":"Ruins","name_suffix":"Lesotho","url":"https://travel.sygic.com/go/poi:19533336","duration":3600,"marker":"sightseeing:ruins","categories":["sightseeing"],"parent_ids":["country:133","continent:2"],"perex":null,"customer_rating":null,"star_rating":null,"star_rating_unofficial":null,"thumbnail_url":null},{"id":"poi:19533386","level":"poi","rating":0.001,"quadkey":"300303022222120120","location":{"lat":-29.4809241,"lng":28.1757525},"bounding_box":null,"name":"Ruins","name_suffix":"Lesotho","url":"https://travel.sygic.com/go/poi:19533386","duration":3600,"marker":"sightseeing:ruins","categories":["sightseeing"],"parent_ids":["country:133","continent:2"],"perex":null,"customer_rating":null,"star_rating":null,"star_rating_unofficial":null,"thumbnail_url":null},{"id":"poi:19533969","level":"poi","rating":0.001,"quadkey":"300303022222103332","location":{"lat":-29.4768629,"lng":28.1895313},"bounding_box":null,"name":"Ruins","name_suffix":"Lesotho","url":"https://travel.sygic.com/go/poi:19533969","duration":3600,"marker":"sightseeing:ruins","categories":["sightseeing"],"parent_ids":["country:133","continent:2"],"perex":null,"customer_rating":null,"star_rating":null,"star_rating_unofficial":null,"thumbnail_url":null},{"id":"poi:19533990","level":"poi","rating":0.001,"quadkey":"300303022222323010","location":{"lat":-29.5257904,"lng":28.1830328},"bounding_box":null,"name":"Toilets","name_suffix":"Lesotho","url":"https://travel.sygic.com/go/poi:19533990","duration":300,"marker":"other:toilets","categories":[],"parent_ids":["country:133","continent:2"],"perex":null,"customer_rating":null,"star_rating":null,"star_rating_unofficial":null,"thumbnail_url":null},{"id":"poi:19534113","level":"poi","rating":0.001,"quadkey":"300303022222103312","location":{"lat":-29.4753428,"lng":28.188974},"bounding_box":null,"name":"Ruins","name_suffix":"Lesotho","url":"https://travel.sygic.com/go/poi:19534113","duration":3600,"marker":"sightseeing:ruins","categories":["sightseeing"],"parent_ids":["country:133","continent:2"],"perex":null,"customer_rating":null,"star_rating":null,"star_rating_unofficial":null,"thumbnail_url":null},{"id":"poi:19534143","level":"poi","rating":0.001,"quadkey":"300303022222103202","location":{"lat":-29.4743449,"lng":28.1806009},"bounding_box":null,"name":"Ruins","name_suffix":"Lesotho","url":"https://travel.sygic.com/go/poi:19534143","duration":3600,"marker":"sightseeing:ruins","categories":["sightseeing"],"parent_ids":["country:133","continent:2"],"perex":null,"customer_rating":null,"star_rating":null,"star_rating_unofficial":null,"thumbnail_url":null},{"id":"poi:19122922","level":"poi","rating":0.001,"quadkey":"300303022130222300","location":{"lat":-29.1476914,"lng":28.6590659},"bounding_box":null,"name":"Ruins","name_suffix":"Lesotho","url":"https://travel.sygic.com/go/poi:19122922","duration":3600,"marker":"sightseeing:ruins","categories":["sightseeing"],"parent_ids":["country:133","continent:2"],"perex":null,"customer_rating":null,"star_rating":null,"star_rating_unofficial":null,"thumbnail_url":null},{"id":"poi:19122923","level":"poi","rating":0.001,"quadkey":"300303022130222301","location":{"lat":-29.1485445,"lng":28.6598203},"bounding_box":null,"name":"Ruins","name_suffix":"Lesotho","url":"https://travel.sygic.com/go/poi:19122923","duration":3600,"marker":"sightseeing:ruins","categories":["sightseeing"],"parent_ids":["country:133","continent:2"],"perex":null,"customer_rating":null,"star_rating":null,"star_rating_unofficial":null,"thumbnail_url":null},{"id":"poi:19123235","level":"poi","rating":0.001,"quadkey":"300303022121323233","location":{"lat":-29.1512556,"lng":28.6242432},"bounding_box":null,"name":"Ruins","name_suffix":"Lesotho","url":"https://travel.sygic.com/go/poi:19123235","duration":3600,"marker":"sightseeing:ruins","categories":["sightseeing"],"parent_ids":["country:133","continent:2"],"perex":null,"customer_rating":null,"star_rating":null,"star_rating_unofficial":null,"thumbnail_url":null},{"id":"poi:19123744","level":"poi","rating":0.001,"quadkey":"300303022231012030","location":{"lat":-29.3951812,"lng":28.4145007},"bounding_box":null,"name":"Ruins","name_suffix":"Lesotho","url":"https://travel.sygic.com/go/poi:19123744","duration":3600,"marker":"sightseeing:ruins","categories":["sightseeing"],"parent_ids":["country:133","continent:2"],"perex":null,"customer_rating":null,"star_rating":null,"star_rating_unofficial":null,"thumbnail_url":null},{"id":"poi:19123898","level":"poi","rating":0.001,"quadkey":"300303200103000203","location":{"lat":-29.6187618,"lng":28.5663736},"bounding_box":null,"name":"Ruins","name_suffix":"Lesotho","url":"https://travel.sygic.com/go/poi:19123898","duration":3600,"marker":"sightseeing:ruins","categories":["sightseeing"],"parent_ids":["country:133","continent:2"],"perex":null,"customer_rating":null,"star_rating":null,"star_rating_unofficial":null,"thumbnail_url":null},{"id":"poi:19879775","level":"poi","rating":0.001,"quadkey":"300302311012203110","location":{"lat":-29.6598247,"lng":27.6182215},"bounding_box":null,"name":"Ruins","name_suffix":"Lesotho","url":"https://travel.sygic.com/go/poi:19879775","duration":3600,"marker":"sightseeing:ruins","categories":["sightseeing"],"parent_ids":["country:133","continent:2"],"perex":null,"customer_rating":null,"star_rating":null,"star_rating_unofficial":null,"thumbnail_url":null},{"id":"poi:17765468","level":"poi","rating":0.001,"quadkey":"300303200003202122","location":{"lat":-29.6631583,"lng":28.2192169},"bounding_box":null,"name":"Ruins","name_suffix":"Lesotho","url":"https://travel.sygic.com/go/poi:17765468","duration":3600,"marker":"sightseeing:ruins","categories":["sightseeing"],"parent_ids":["country:133","continent:2"],"perex":null,"customer_rating":null,"star_rating":null,"star_rating_unofficial":null,"thumbnail_url":null},{"id":"poi:17692010","level":"poi","rating":0.001,"quadkey":"300303200203232323","location":{"lat":-29.9918557,"lng":28.2425271},"bounding_box":null,"name":"Ruins","name_suffix":"Lesotho","url":"https://travel.sygic.com/go/poi:17692010","duration":3600,"marker":"sightseeing:ruins","categories":["sightseeing"],"parent_ids":["country:133","continent:2"],"perex":null,"customer_rating":null,"star_rating":null,"star_rating_unofficial":null,"thumbnail_url":null},{"id":"poi:17641052","level":"poi","rating":0.001,"quadkey":"300302133133103130","location":{"lat":-29.164817,"lng":28.1006905},"bounding_box":null,"name":"Ruins","name_suffix":"Lesotho","url":"https://travel.sygic.com/go/poi:17641052","duration":3600,"marker":"sightseeing:ruins","categories":["sightseeing"],"parent_ids":["country:133","continent:2"],"perex":null,"customer_rating":null,"star_rating":null,"star_rating_unofficial":null,"thumbnail_url":null},{"id":"poi:17426242","level":"poi","rating":0.001,"quadkey":"300303022020211200","location":{"lat":-29.1195778,"lng":28.1586193},"bounding_box":null,"name":"Ruins","name_suffix":"Lesotho","url":"https://travel.sygic.com/go/poi:17426242","duration":3600,"marker":"sightseeing:ruins","categories":["sightseeing"],"parent_ids":["country:133","continent:2"],"perex":null,"customer_rating":null,"star_rating":null,"star_rating_unofficial":null,"thumbnail_url":null},{"id":"poi:18426878","level":"poi","rating":0.001,"quadkey":"300303200233013232","location":{"lat":-30.0877824,"lng":28.4246242},"bounding_box":null,"name":"Thaba-Telle","name_suffix":"Lesotho","url":"https://travel.sygic.com/go/poi:18426878","duration":3600,"marker":"hiking:mountains:peak","categories":["hiking"],"parent_ids":["country:133","continent:2"],"perex":null,"customer_rating":null,"star_rating":null,"star_rating_unofficial":null,"thumbnail_url":null},{"id":"poi:19005521","level":"poi","rating":0.001,"quadkey":"300303022323212301","location":{"lat":-29.5120797,"lng":28.5940424},"bounding_box":null,"name":"Lesotho College of Education","name_suffix":"Lesotho","url":"https://travel.sygic.com/go/poi:19005521","duration":2700,"marker":"discovering:university:college","categories":[],"parent_ids":["country:133","continent:2"],"perex":null,"customer_rating":null,"star_rating":null,"star_rating_unofficial":null,"thumbnail_url":null},{"id":"poi:19007018","level":"poi","rating":0.001,"quadkey":"300302310101223120","location":{"lat":-29.6055657,"lng":27.1758053},"bounding_box":null,"name":"Toilets","name_suffix":"Lesotho","url":"https://travel.sygic.com/go/poi:19007018","duration":300,"marker":"other:toilets","categories":[],"parent_ids":["country:133","continent:2"],"perex":null,"customer_rating":null,"star_rating":null,"star_rating_unofficial":null,"thumbnail_url":null},{"id":"poi:19756334","level":"poi","rating":0.001,"quadkey":"300302311020023311","location":{"lat":-29.7215381,"lng":27.443114},"bounding_box":null,"name":"Toilets","name_suffix":"Lesotho","url":"https://travel.sygic.com/go/poi:19756334","duration":300,"marker":"other:toilets","categories":[],"parent_ids":["country:133","continent:2"],"perex":null,"customer_rating":null,"star_rating":null,"star_rating_unofficial":null,"thumbnail_url":null},{"id":"poi:19756387","level":"poi","rating":0.001,"quadkey":"300302311020023123","location":{"lat":-29.7207112,"lng":27.4404344},"bounding_box":null,"name":"Toilets","name_suffix":"Lesotho","url":"https://travel.sygic.com/go/poi:19756387","duration":300,"marker":"other:toilets","categories":[],"parent_ids":["country:133","continent:2"],"perex":null,"customer_rating":null,"star_rating":null,"star_rating_unofficial":null,"thumbnail_url":null},{"id":"poi:19758510","level":"poi","rating":0.001,"quadkey":"300302310131130230","location":{"lat":-29.7148666,"lng":27.4038814},"bounding_box":null,"name":"Toilets","name_suffix":"Lesotho","url":"https://travel.sygic.com/go/poi:19758510","duration":300,"marker":"other:toilets","categories":[],"parent_ids":["country:133","continent:2"],"perex":null,"customer_rating":null,"star_rating":null,"star_rating_unofficial":null,"thumbnail_url":null},{"id":"poi:19758511","level":"poi","rating":0.001,"quadkey":"300302310131130220","location":{"lat":-29.7152743,"lng":27.4011656},"bounding_box":null,"name":"Toilets","name_suffix":"Lesotho","url":"https://travel.sygic.com/go/poi:19758511","duration":300,"marker":"other:toilets","categories":[],"parent_ids":["country:133","continent:2"],"perex":null,"customer_rating":null,"star_rating":null,"star_rating_unofficial":null,"thumbnail_url":null},{"id":"poi:19758549","level":"poi","rating":0.001,"quadkey":"300302310131130202","location":{"lat":-29.71383,"lng":27.4009457},"bounding_box":null,"name":"Toilets","name_suffix":"Lesotho","url":"https://travel.sygic.com/go/poi:19758549","duration":300,"marker":"other:toilets","categories":[],"parent_ids":["country:133","continent:2"],"perex":null,"customer_rating":null,"star_rating":null,"star_rating_unofficial":null,"thumbnail_url":null},{"id":"poi:19759013","level":"poi","rating":0.001,"quadkey":"300302310131131022","location":{"lat":-29.7113072,"lng":27.4110978},"bounding_box":null,"name":"Toilets","name_suffix":"Lesotho","url":"https://travel.sygic.com/go/poi:19759013","duration":300,"marker":"other:toilets","categories":[],"parent_ids":["country:133","continent:2"],"perex":null,"customer_rating":null,"star_rating":null,"star_rating_unofficial":null,"thumbnail_url":null},{"id":"poi:19759094","level":"poi","rating":0.001,"quadkey":"300302310131131022","location":{"lat":-29.7114468,"lng":27.4115941},"bounding_box":null,"name":"Toilets","name_suffix":"Lesotho","url":"https://travel.sygic.com/go/poi:19759094","duration":300,"marker":"other:toilets","categories":[],"parent_ids":["country:133","continent:2"],"perex":null,"customer_rating":null,"star_rating":null,"star_rating_unofficial":null,"thumbnail_url":null},{"id":"poi:19759577","level":"poi","rating":0.001,"quadkey":"300302310131132230","location":{"lat":-29.7240747,"lng":27.4038693},"bounding_box":null,"name":"Toilets","name_suffix":"Lesotho","url":"https://travel.sygic.com/go/poi:19759577","duration":300,"marker":"other:toilets","categories":[],"parent_ids":["country:133","continent:2"],"perex":null,"customer_rating":null,"star_rating":null,"star_rating_unofficial":null,"thumbnail_url":null},{"id":"poi:19759724","level":"poi","rating":0.001,"quadkey":"300302310312133330","location":{"lat":-29.9530105,"lng":27.3318208},"bounding_box":null,"name":"Ruins","name_suffix":"Lesotho","url":"https://travel.sygic.com/go/poi:19759724","duration":3600,"marker":"sightseeing:ruins","categories":["sightseeing"],"parent_ids":["country:133","continent:2"],"perex":null,"customer_rating":null,"star_rating":null,"star_rating_unofficial":null,"thumbnail_url":null},{"id":"poi:20479373","level":"poi","rating":0.001,"quadkey":"300302310132020331","location":{"lat":-29.7911185,"lng":27.2569143},"bounding_box":null,"name":"Ruins","name_suffix":"Mafeteng, Lesotho","url":"https://travel.sygic.com/go/poi:20479373","duration":3600,"marker":"sightseeing:ruins","categories":["sightseeing"],"parent_ids":["city:1312","region:2010584","country:133","continent:2"],"perex":null,"customer_rating":null,"star_rating":null,"star_rating_unofficial":null,"thumbnail_url":null},{"id":"poi:19214878","level":"poi","rating":0.001,"quadkey":"300302311302120031","location":{"lat":-29.9386059,"lng":27.822473},"bounding_box":null,"name":"Ruins","name_suffix":"Lesotho","url":"https://travel.sygic.com/go/poi:19214878","duration":3600,"marker":"sightseeing:ruins","categories":["sightseeing"],"parent_ids":["country:133","continent:2"],"perex":null,"customer_rating":null,"star_rating":null,"star_rating_unofficial":null,"thumbnail_url":null},{"id":"poi:19707629","level":"poi","rating":0.001,"quadkey":"300302310110231331","location":{"lat":-29.6002782,"lng":27.2898633},"bounding_box":null,"name":"Toilets","name_suffix":"Lesotho","url":"https://travel.sygic.com/go/poi:19707629","duration":300,"marker":"other:toilets","categories":[],"parent_ids":["country:133","continent:2"],"perex":null,"customer_rating":null,"star_rating":null,"star_rating_unofficial":null,"thumbnail_url":null},{"id":"poi:19707911","level":"poi","rating":0.001,"quadkey":"300303200101033300","location":{"lat":-29.5698545,"lng":28.6041619},"bounding_box":null,"name":"Ruins","name_suffix":"Lesotho","url":"https://travel.sygic.com/go/poi:19707911","duration":3600,"marker":"sightseeing:ruins","categories":["sightseeing"],"parent_ids":["country:133","continent:2"],"perex":null,"customer_rating":null,"star_rating":null,"star_rating_unofficial":null,"thumbnail_url":null},{"id":"poi:19708351","level":"poi","rating":0.001,"quadkey":"300303200101012013","location":{"lat":-29.5462738,"lng":28.5909777},"bounding_box":null,"name":"Ruins","name_suffix":"Lesotho","url":"https://travel.sygic.com/go/poi:19708351","duration":3600,"marker":"sightseeing:ruins","categories":["sightseeing"],"parent_ids":["country:133","continent:2"],"perex":null,"customer_rating":null,"star_rating":null,"star_rating_unofficial":null,"thumbnail_url":null},{"id":"poi:19653921","level":"poi","rating":0.001,"quadkey":"300303022321131233","location":{"lat":-29.4108412,"lng":28.6461225},"bounding_box":null,"name":"Ruins","name_suffix":"Lesotho","url":"https://travel.sygic.com/go/poi:19653921","duration":3600,"marker":"sightseeing:ruins","categories":["sightseeing"],"parent_ids":["country:133","continent:2"],"perex":null,"customer_rating":null,"star_rating":null,"star_rating_unofficial":null,"thumbnail_url":null},{"id":"poi:20136238","level":"poi","rating":0.001,"quadkey":"300302310133113303","location":{"lat":-29.7801485,"lng":27.4187769},"bounding_box":null,"name":"Toilets","name_suffix":"Mafeteng, Lesotho","url":"https://travel.sygic.com/go/poi:20136238","duration":300,"marker":"other:toilets","categories":[],"parent_ids":["region:2010584","country:133","continent:2"],"perex":null,"customer_rating":null,"star_rating":null,"star_rating_unofficial":null,"thumbnail_url":null},{"id":"poi:19471699","level":"poi","rating":0.001,"quadkey":"300302133102323321","location":{"lat":-29.0741199,"lng":27.8363018},"bounding_box":null,"name":"Toilets","name_suffix":"Lesotho","url":"https://travel.sygic.com/go/poi:19471699","duration":300,"marker":"other:toilets","categories":[],"parent_ids":["country:133","continent:2"],"perex":null,"customer_rating":null,"star_rating":null,"star_rating_unofficial":null,"thumbnail_url":null},{"id":"poi:19471701","level":"poi","rating":0.001,"quadkey":"300302133102323321","location":{"lat":-29.0736873,"lng":27.8355964},"bounding_box":null,"name":"Toilets","name_suffix":"Lesotho","url":"https://travel.sygic.com/go/poi:19471701","duration":300,"marker":"other:toilets","categories":[],"parent_ids":["country:133","continent:2"],"perex":null,"customer_rating":null,"star_rating":null,"star_rating_unofficial":null,"thumbnail_url":null},{"id":"poi:19020310","level":"poi","rating":0.001,"quadkey":"300302133213120310","location":{"lat":-29.3298845,"lng":27.7382748},"bounding_box":null,"name":"Ruins","name_suffix":"Lesotho","url":"https://travel.sygic.com/go/poi:19020310","duration":3600,"marker":"sightseeing:ruins","categories":["sightseeing"],"parent_ids":["country:133","continent:2"],"perex":null,"customer_rating":null,"star_rating":null,"star_rating_unofficial":null,"thumbnail_url":null},{"id":"poi:19022073","level":"poi","rating":0.001,"quadkey":"300302310103002330","location":{"lat":-29.6286308,"lng":27.1677121},"bounding_box":null,"name":"Ruins","name_suffix":"Lesotho","url":"https://travel.sygic.com/go/poi:19022073","duration":3600,"marker":"sightseeing:ruins","categories":["sightseeing"],"parent_ids":["country:133","continent:2"],"perex":null,"customer_rating":null,"star_rating":null,"star_rating_unofficial":null,"thumbnail_url":null},{"id":"poi:19022074","level":"poi","rating":0.001,"quadkey":"300302133032111103","location":{"lat":-29.1537723,"lng":27.6820411},"bounding_box":null,"name":"Toilets","name_suffix":"Lesotho","url":"https://travel.sygic.com/go/poi:19022074","duration":300,"marker":"other:toilets","categories":[],"parent_ids":["country:133","continent:2"],"perex":null,"customer_rating":null,"star_rating":null,"star_rating_unofficial":null,"thumbnail_url":null},{"id":"poi:19022197","level":"poi","rating":0.001,"quadkey":"300302133032111222","location":{"lat":-29.161752,"lng":27.6753458},"bounding_box":null,"name":"Toilets","name_suffix":"Lesotho","url":"https://travel.sygic.com/go/poi:19022197","duration":300,"marker":"other:toilets","categories":[],"parent_ids":["country:133","continent:2"],"perex":null,"customer_rating":null,"star_rating":null,"star_rating_unofficial":null,"thumbnail_url":null},{"id":"poi:19023802","level":"poi","rating":0.001,"quadkey":"300302310103020123","location":{"lat":-29.6354504,"lng":27.1653995},"bounding_box":null,"name":"Ruins","name_suffix":"Lesotho","url":"https://travel.sygic.com/go/poi:19023802","duration":3600,"marker":"sightseeing:ruins","categories":["sightseeing"],"parent_ids":["country:133","continent:2"],"perex":null,"customer_rating":null,"star_rating":null,"star_rating_unofficial":null,"thumbnail_url":null},{"id":"poi:20227621","level":"poi","rating":0.001,"quadkey":"300302133200322210","location":{"lat":-29.3009731,"lng":27.4689542},"bounding_box":null,"name":"Department of Physical Planning","name_suffix":"Maseru, Lesotho","url":"https://travel.sygic.com/go/poi:20227621","duration":3600,"marker":"default","categories":[],"parent_ids":["city:1314","region:2010571","country:133","continent:2"],"perex":null,"customer_rating":null,"star_rating":null,"star_rating_unofficial":null,"thumbnail_url":null},{"id":"poi:19089824","level":"poi","rating":0.001,"quadkey":"300302133332331213","location":{"lat":-29.5221062,"lng":28.0314288},"bounding_box":null,"name":"Ruins","name_suffix":"Lesotho","url":"https://travel.sygic.com/go/poi:19089824","duration":3600,"marker":"sightseeing:ruins","categories":["sightseeing"],"parent_ids":["country:133","continent:2"],"perex":null,"customer_rating":null,"star_rating":null,"star_rating_unofficial":null,"thumbnail_url":null},{"id":"poi:19089898","level":"poi","rating":0.001,"quadkey":"300302133332322033","location":{"lat":-29.5295578,"lng":27.9982133},"bounding_box":null,"name":"Ruins","name_suffix":"Lesotho","url":"https://travel.sygic.com/go/poi:19089898","duration":3600,"marker":"sightseeing:ruins","categories":["sightseeing"],"parent_ids":["country:133","continent:2"],"perex":null,"customer_rating":null,"star_rating":null,"star_rating_unofficial":null,"thumbnail_url":null},{"id":"poi:20301643","level":"poi","rating":0.001,"quadkey":"300302133202112101","location":{"lat":-29.3159823,"lng":27.4948779},"bounding_box":null,"name":"Thanda Bantu","name_suffix":"Maseru, Lesotho","url":"https://travel.sygic.com/go/poi:20301643","duration":3600,"marker":"default","categories":[],"parent_ids":["city:1314","region:2010571","country:133","continent:2"],"perex":null,"customer_rating":null,"star_rating":null,"star_rating_unofficial":null,"thumbnail_url":null},{"id":"poi:20720952","level":"poi","rating":0.001,"quadkey":"300303022122023133","location":{"lat":-29.1856715,"lng":28.49742},"bounding_box":null,"name":"Toilets","name_suffix":"Lesotho","url":"https://travel.sygic.com/go/poi:20720952","duration":300,"marker":"other:toilets","categories":[],"parent_ids":["country:133","continent:2"],"perex":null,"customer_rating":null,"star_rating":null,"star_rating_unofficial":null,"thumbnail_url":null},{"id":"poi:20720964","level":"poi","rating":0.001,"quadkey":"300303022122023300","location":{"lat":-29.1866599,"lng":28.4931706},"bounding_box":null,"name":"Toilets","name_suffix":"Lesotho","url":"https://travel.sygic.com/go/poi:20720964","duration":300,"marker":"other:toilets","categories":[],"parent_ids":["country:133","continent:2"],"perex":null,"customer_rating":null,"star_rating":null,"star_rating_unofficial":null,"thumbnail_url":null},{"id":"poi:20720987","level":"poi","rating":0.001,"quadkey":"300303022122023331","location":{"lat":-29.1881421,"lng":28.4979181},"bounding_box":null,"name":"Toilets","name_suffix":"Lesotho","url":"https://travel.sygic.com/go/poi:20720987","duration":300,"marker":"other:toilets","categories":[],"parent_ids":["country:133","continent:2"],"perex":null,"customer_rating":null,"star_rating":null,"star_rating_unofficial":null,"thumbnail_url":null},{"id":"poi:20720997","level":"poi","rating":0.001,"quadkey":"300303022122023033","location":{"lat":-29.1855078,"lng":28.4927281},"bounding_box":null,"name":"Toilets","name_suffix":"Lesotho","url":"https://travel.sygic.com/go/poi:20720997","duration":300,"marker":"other:toilets","categories":[],"parent_ids":["country:133","continent:2"],"perex":null,"customer_rating":null,"star_rating":null,"star_rating_unofficial":null,"thumbnail_url":null},{"id":"poi:19735856","level":"poi","rating":0.001,"quadkey":"300302310131121301","location":{"lat":-29.7125768,"lng":27.3970511},"bounding_box":null,"name":"Toilets","name_suffix":"Lesotho","url":"https://travel.sygic.com/go/poi:19735856","duration":300,"marker":"other:toilets","categories":[],"parent_ids":["country:133","continent:2"],"perex":null,"customer_rating":null,"star_rating":null,"star_rating_unofficial":null,"thumbnail_url":null},{"id":"poi:19735868","level":"poi","rating":0.001,"quadkey":"300302310131121313","location":{"lat":-29.7139268,"lng":27.3985773},"bounding_box":null,"name":"Toilets","name_suffix":"Lesotho","url":"https://travel.sygic.com/go/poi:19735868","duration":300,"marker":"other:toilets","categories":[],"parent_ids":["country:133","continent:2"],"perex":null,"customer_rating":null,"star_rating":null,"star_rating_unofficial":null,"thumbnail_url":null},{"id":"poi:19735873","level":"poi","rating":0.001,"quadkey":"300302310131121331","location":{"lat":-29.7152254,"lng":27.3988509},"bounding_box":null,"name":"Toilets","name_suffix":"Lesotho","url":"https://travel.sygic.com/go/poi:19735873","duration":300,"marker":"other:toilets","categories":[],"parent_ids":["country:133","continent:2"],"perex":null,"customer_rating":null,"star_rating":null,"star_rating_unofficial":null,"thumbnail_url":null},{"id":"poi:19736915","level":"poi","rating":0.001,"quadkey":"300302310113333311","location":{"lat":-29.6833504,"lng":27.4215719},"bounding_box":null,"name":"Toilets","name_suffix":"Lesotho","url":"https://travel.sygic.com/go/poi:19736915","duration":300,"marker":"other:toilets","categories":[],"parent_ids":["country:133","continent:2"],"perex":null,"customer_rating":null,"star_rating":null,"star_rating_unofficial":null,"thumbnail_url":null},{"id":"poi:19737208","level":"poi","rating":0.001,"quadkey":"300302310113332110","location":{"lat":-29.6790279,"lng":27.4086301},"bounding_box":null,"name":"Toilets","name_suffix":"Lesotho","url":"https://travel.sygic.com/go/poi:19737208","duration":300,"marker":"other:toilets","categories":[],"parent_ids":["country:133","continent:2"],"perex":null,"customer_rating":null,"star_rating":null,"star_rating_unofficial":null,"thumbnail_url":null},{"id":"poi:19737484","level":"poi","rating":0.001,"quadkey":"300302310331012223","location":{"lat":-30.011815,"lng":27.3574166},"bounding_box":null,"name":"Ruins","name_suffix":"Tsoloane, Lesotho","url":"https://travel.sygic.com/go/poi:19737484","duration":3600,"marker":"sightseeing:ruins","categories":["sightseeing"],"parent_ids":["region:1564453","country:133","continent:2"],"perex":null,"customer_rating":null,"star_rating":null,"star_rating_unofficial":null,"thumbnail_url":null},{"id":"poi:19421200","level":"poi","rating":0.001,"quadkey":"300303022302311003","location":{"lat":-29.3453763,"lng":28.5551056},"bounding_box":null,"name":"Ruins","name_suffix":"Lesotho","url":"https://travel.sygic.com/go/poi:19421200","duration":3600,"marker":"sightseeing:ruins","categories":["sightseeing"],"parent_ids":["country:133","continent:2"],"perex":null,"customer_rating":null,"star_rating":null,"star_rating_unofficial":null,"thumbnail_url":null},{"id":"poi:19422844","level":"poi","rating":0.001,"quadkey":"300302310301112311","location":{"lat":-29.8551363,"lng":27.2340675},"bounding_box":null,"name":"Ruins","name_suffix":"Mafeteng, Lesotho","url":"https://travel.sygic.com/go/poi:19422844","duration":3600,"marker":"sightseeing:ruins","categories":["sightseeing"],"parent_ids":["city:1312","country:133","continent:2"],"perex":null,"customer_rating":null,"star_rating":null,"star_rating_unofficial":null,"thumbnail_url":null},{"id":"poi:19423377","level":"poi","rating":0.001,"quadkey":"300303023032300230","location":{"lat":-29.1985978,"lng":29.0511445},"bounding_box":null,"name":"Ruins","name_suffix":"Lesotho","url":"https://travel.sygic.com/go/poi:19423377","duration":3600,"marker":"sightseeing:ruins","categories":["sightseeing"],"parent_ids":["country:133","continent:2"],"perex":null,"customer_rating":null,"star_rating":null,"star_rating_unofficial":null,"thumbnail_url":null},{"id":"poi:19423391","level":"poi","rating":0.001,"quadkey":"300303023032300230","location":{"lat":-29.1983737,"lng":29.0512472},"bounding_box":null,"name":"Ruins","name_suffix":"Lesotho","url":"https://travel.sygic.com/go/poi:19423391","duration":3600,"marker":"sightseeing:ruins","categories":["sightseeing"],"parent_ids":["country:133","continent:2"],"perex":null,"customer_rating":null,"star_rating":null,"star_rating_unofficial":null,"thumbnail_url":null},{"id":"poi:19423446","level":"poi","rating":0.001,"quadkey":"300302133121300232","location":{"lat":-29.1222328,"lng":27.9089449},"bounding_box":null,"name":"Ruins","name_suffix":"Lesotho","url":"https://travel.sygic.com/go/poi:19423446","duration":3600,"marker":"sightseeing:ruins","categories":["sightseeing"],"parent_ids":["country:133","continent:2"],"perex":null,"customer_rating":null,"star_rating":null,"star_rating_unofficial":null,"thumbnail_url":null},{"id":"poi:19423452","level":"poi","rating":0.001,"quadkey":"300302133121300223","location":{"lat":-29.1224355,"lng":27.9076992},"bounding_box":null,"name":"Ruins","name_suffix":"Lesotho","url":"https://travel.sygic.com/go/poi:19423452","duration":3600,"marker":"sightseeing:ruins","categories":["sightseeing"],"parent_ids":["country:133","continent:2"],"perex":null,"customer_rating":null,"star_rating":null,"star_rating_unofficial":null,"thumbnail_url":null},{"id":"poi:19423685","level":"poi","rating":0.001,"quadkey":"300302310131013321","location":{"lat":-29.7056915,"lng":27.3741397},"bounding_box":null,"name":"Toilets","name_suffix":"Lesotho","url":"https://travel.sygic.com/go/poi:19423685","duration":300,"marker":"other:toilets","categories":[],"parent_ids":["country:133","continent:2"],"perex":null,"customer_rating":null,"star_rating":null,"star_rating_unofficial":null,"thumbnail_url":null},{"id":"poi:19424937","level":"poi","rating":0.001,"quadkey":"300303023203023121","location":{"lat":-29.3371665,"lng":28.9342094},"bounding_box":null,"name":"Ruins","name_suffix":"Lesotho","url":"https://travel.sygic.com/go/poi:19424937","duration":3600,"marker":"sightseeing:ruins","categories":["sightseeing"],"parent_ids":["country:133","continent:2"],"perex":null,"customer_rating":null,"star_rating":null,"star_rating_unofficial":null,"thumbnail_url":null},{"id":"poi:19424956","level":"poi","rating":0.001,"quadkey":"300303023203022133","location":{"lat":-29.3389118,"lng":28.9267694},"bounding_box":null,"name":"Ruins","name_suffix":"Lesotho","url":"https://travel.sygic.com/go/poi:19424956","duration":3600,"marker":"sightseeing:ruins","categories":["sightseeing"],"parent_ids":["country:133","continent:2"],"perex":null,"customer_rating":null,"star_rating":null,"star_rating_unofficial":null,"thumbnail_url":null},{"id":"poi:19424986","level":"poi","rating":0.001,"quadkey":"300303023021030312","location":{"lat":-29.1010179,"lng":28.9463703},"bounding_box":null,"name":"Ruins","name_suffix":"Lesotho","url":"https://travel.sygic.com/go/poi:19424986","duration":3600,"marker":"sightseeing:ruins","categories":["sightseeing"],"parent_ids":["country:133","continent:2"],"perex":null,"customer_rating":null,"star_rating":null,"star_rating_unofficial":null,"thumbnail_url":null},{"id":"poi:19424991","level":"poi","rating":0.001,"quadkey":"300303023021030033","location":{"lat":-29.0984816,"lng":28.9431166},"bounding_box":null,"name":"Ruins","name_suffix":"Lesotho","url":"https://travel.sygic.com/go/poi:19424991","duration":3600,"marker":"sightseeing:ruins","categories":["sightseeing"],"parent_ids":["country:133","continent:2"],"perex":null,"customer_rating":null,"star_rating":null,"star_rating_unofficial":null,"thumbnail_url":null},{"id":"poi:19424994","level":"poi","rating":0.001,"quadkey":"300303023021030030","location":{"lat":-29.0980295,"lng":28.9419555},"bounding_box":null,"name":"Ruins","name_suffix":"Lesotho","url":"https://travel.sygic.com/go/poi:19424994","duration":3600,"marker":"sightseeing:ruins","categories":["sightseeing"],"parent_ids":["country:133","continent:2"],"perex":null,"customer_rating":null,"star_rating":null,"star_rating_unofficial":null,"thumbnail_url":null},{"id":"poi:19727642","level":"poi","rating":0.001,"quadkey":"300302310131120300","location":{"lat":-29.7127841,"lng":27.3847693},"bounding_box":null,"name":"Toilets","name_suffix":"Lesotho","url":"https://travel.sygic.com/go/poi:19727642","duration":300,"marker":"other:toilets","categories":[],"parent_ids":["country:133","continent:2"],"perex":null,"customer_rating":null,"star_rating":null,"star_rating_unofficial":null,"thumbnail_url":null},{"id":"poi:19728111","level":"poi","rating":0.001,"quadkey":"300302310131120322","location":{"lat":-29.716432,"lng":27.3839914},"bounding_box":null,"name":"Toilets","name_suffix":"Lesotho","url":"https://travel.sygic.com/go/poi:19728111","duration":300,"marker":"other:toilets","categories":[],"parent_ids":["country:133","continent:2"],"perex":null,"customer_rating":null,"star_rating":null,"star_rating_unofficial":null,"thumbnail_url":null},{"id":"poi:19728348","level":"poi","rating":0.001,"quadkey":"300302310131122133","location":{"lat":-29.7202698,"lng":27.3879423},"bounding_box":null,"name":"Toilets","name_suffix":"Lesotho","url":"https://travel.sygic.com/go/poi:19728348","duration":300,"marker":"other:toilets","categories":[],"parent_ids":["country:133","continent:2"],"perex":null,"customer_rating":null,"star_rating":null,"star_rating_unofficial":null,"thumbnail_url":null},{"id":"poi:19728383","level":"poi","rating":0.001,"quadkey":"300302310131122130","location":{"lat":-29.7192437,"lng":27.3865637},"bounding_box":null,"name":"Toilets","name_suffix":"Lesotho","url":"https://travel.sygic.com/go/poi:19728383","duration":300,"marker":"other:toilets","categories":[],"parent_ids":["country:133","continent:2"],"perex":null,"customer_rating":null,"star_rating":null,"star_rating_unofficial":null,"thumbnail_url":null},{"id":"poi:19728985","level":"poi","rating":0.001,"quadkey":"300302133230302003","location":{"lat":-29.4321138,"lng":27.6439346},"bounding_box":null,"name":"Ruins","name_suffix":"Ha Liile, Lesotho","url":"https://travel.sygic.com/go/poi:19728985","duration":3600,"marker":"sightseeing:ruins","categories":["sightseeing"],"parent_ids":["region:1045812","country:133","continent:2"],"perex":null,"customer_rating":null,"star_rating":null,"star_rating_unofficial":null,"thumbnail_url":null},{"id":"poi:20940777","level":"poi","rating":0.001,"quadkey":"300303022301132312","location":{"lat":-29.2637091,"lng":28.6393257},"bounding_box":null,"name":"Ruins","name_suffix":"Lesotho","url":"https://travel.sygic.com/go/poi:20940777","duration":1800,"marker":"sightseeing:ruins","categories":["sightseeing"],"parent_ids":["country:133","continent:2"],"perex":null,"customer_rating":null,"star_rating":null,"star_rating_unofficial":null,"thumbnail_url":null},{"id":"poi:20940786","level":"poi","rating":0.001,"quadkey":"300303022301132001","location":{"lat":-29.2582173,"lng":28.6325748},"bounding_box":null,"name":"Ruins","name_suffix":"Lesotho","url":"https://travel.sygic.com/go/poi:20940786","duration":1800,"marker":"sightseeing:ruins","categories":["sightseeing"],"parent_ids":["country:133","continent:2"],"perex":null,"customer_rating":null,"star_rating":null,"star_rating_unofficial":null,"thumbnail_url":null},{"id":"poi:20011404","level":"poi","rating":0.001,"quadkey":"300303022322111133","location":{"lat":-29.4628135,"lng":28.564056},"bounding_box":null,"name":"Ruins","name_suffix":"Lesotho","url":"https://travel.sygic.com/go/poi:20011404","duration":3600,"marker":"sightseeing:ruins","categories":["sightseeing"],"parent_ids":["country:133","continent:2"],"perex":null,"customer_rating":null,"star_rating":null,"star_rating_unofficial":null,"thumbnail_url":null},{"id":"poi:20047498","level":"poi","rating":0.001,"quadkey":"300303200110203321","location":{"lat":-29.591261,"lng":28.67055},"bounding_box":null,"name":"Toilets","name_suffix":"Mohlanapeng, Lesotho","url":"https://travel.sygic.com/go/poi:20047498","duration":300,"marker":"other:toilets","categories":[],"parent_ids":["region:1566075","country:133","continent:2"],"perex":null,"customer_rating":null,"star_rating":null,"star_rating_unofficial":null,"thumbnail_url":null},{"id":"poi:19817531","level":"poi","rating":0.001,"quadkey":"300302310110003113","location":{"lat":-29.5460653,"lng":27.2670968},"bounding_box":null,"name":"Toilets","name_suffix":"Lesotho","url":"https://travel.sygic.com/go/poi:19817531","duration":300,"marker":"other:toilets","categories":[],"parent_ids":["country:133","continent:2"],"perex":null,"customer_rating":null,"star_rating":null,"star_rating_unofficial":null,"thumbnail_url":null},{"id":"poi:19817546","level":"poi","rating":0.001,"quadkey":"300302310110003132","location":{"lat":-29.5485492,"lng":27.2665965},"bounding_box":null,"name":"Toilets","name_suffix":"Lesotho","url":"https://travel.sygic.com/go/poi:19817546","duration":300,"marker":"other:toilets","categories":[],"parent_ids":["country:133","continent:2"],"perex":null,"customer_rating":null,"star_rating":null,"star_rating_unofficial":null,"thumbnail_url":null},{"id":"poi:19817547","level":"poi","rating":0.001,"quadkey":"300302310110003100","location":{"lat":-29.5450632,"lng":27.2632759},"bounding_box":null,"name":"Toilets","name_suffix":"Lesotho","url":"https://travel.sygic.com/go/poi:19817547","duration":300,"marker":"other:toilets","categories":[],"parent_ids":["country:133","continent:2"],"perex":null,"customer_rating":null,"star_rating":null,"star_rating_unofficial":null,"thumbnail_url":null},{"id":"poi:19817811","level":"poi","rating":0.001,"quadkey":"300302311003213030","location":{"lat":-29.6625954,"lng":27.5461896},"bounding_box":null,"name":"Ruins","name_suffix":"Lesotho","url":"https://travel.sygic.com/go/poi:19817811","duration":3600,"marker":"sightseeing:ruins","categories":["sightseeing"],"parent_ids":["country:133","continent:2"],"perex":null,"customer_rating":null,"star_rating":null,"star_rating_unofficial":null,"thumbnail_url":null},{"id":"poi:21534294","level":"poi","rating":0.001,"quadkey":"300303023212203103","location":{"lat":-29.3550584,"lng":29.0229097},"bounding_box":null,"name":"Toilets","name_suffix":"Ha Koeneho, Lesotho","url":"https://travel.sygic.com/go/poi:21534294","duration":300,"marker":"other:toilets","categories":[],"parent_ids":["region:918584","country:133","continent:2"],"perex":null,"customer_rating":null,"star_rating":null,"star_rating_unofficial":null,"thumbnail_url":null},{"id":"poi:19800225","level":"poi","rating":0.001,"quadkey":"300302311020220220","location":{"lat":-29.7534219,"lng":27.422453},"bounding_box":null,"name":"Toilets","name_suffix":"Lesotho","url":"https://travel.sygic.com/go/poi:19800225","duration":300,"marker":"other:toilets","categories":[],"parent_ids":["country:133","continent:2"],"perex":null,"customer_rating":null,"star_rating":null,"star_rating_unofficial":null,"thumbnail_url":null},{"id":"poi:18796981","level":"poi","rating":0.001,"quadkey":"300303022310311211","location":{"lat":-29.2731477,"lng":28.7345963},"bounding_box":null,"name":"Ruins","name_suffix":"Lesotho","url":"https://travel.sygic.com/go/poi:18796981","duration":3600,"marker":"sightseeing:ruins","categories":["sightseeing"],"parent_ids":["country:133","continent:2"],"perex":null,"customer_rating":null,"star_rating":null,"star_rating_unofficial":null,"thumbnail_url":null},{"id":"poi:18796992","level":"poi","rating":0.001,"quadkey":"300303022310313000","location":{"lat":-29.2770754,"lng":28.7304533},"bounding_box":null,"name":"Ruins","name_suffix":"Lesotho","url":"https://travel.sygic.com/go/poi:18796992","duration":3600,"marker":"sightseeing:ruins","categories":["sightseeing"],"parent_ids":["country:133","continent:2"],"perex":null,"customer_rating":null,"star_rating":null,"star_rating_unofficial":null,"thumbnail_url":null},{"id":"poi:18797003","level":"poi","rating":0.001,"quadkey":"300303022310313011","location":{"lat":-29.2769616,"lng":28.7341561},"bounding_box":null,"name":"Ruins","name_suffix":"Lesotho","url":"https://travel.sygic.com/go/poi:18797003","duration":3600,"marker":"sightseeing:ruins","categories":["sightseeing"],"parent_ids":["country:133","continent:2"],"perex":null,"customer_rating":null,"star_rating":null,"star_rating_unofficial":null,"thumbnail_url":null},{"id":"poi:18797105","level":"poi","rating":0.001,"quadkey":"300303022310310220","location":{"lat":-29.275125,"lng":28.7183875},"bounding_box":null,"name":"Ruins","name_suffix":"Lesotho","url":"https://travel.sygic.com/go/poi:18797105","duration":3600,"marker":"sightseeing:ruins","categories":["sightseeing"],"parent_ids":["country:133","continent:2"],"perex":null,"customer_rating":null,"star_rating":null,"star_rating_unofficial":null,"thumbnail_url":null},{"id":"poi:18797232","level":"poi","rating":0.001,"quadkey":"300303022310323111","location":{"lat":-29.2969862,"lng":28.7175881},"bounding_box":null,"name":"Ruins","name_suffix":"Lesotho","url":"https://travel.sygic.com/go/poi:18797232","duration":3600,"marker":"sightseeing:ruins","categories":["sightseeing"],"parent_ids":["country:133","continent:2"],"perex":null,"customer_rating":null,"star_rating":null,"star_rating_unofficial":null,"thumbnail_url":null},{"id":"poi:18797235","level":"poi","rating":0.001,"quadkey":"300303022310323111","location":{"lat":-29.2969635,"lng":28.7174683},"bounding_box":null,"name":"Ruins","name_suffix":"Lesotho","url":"https://travel.sygic.com/go/poi:18797235","duration":3600,"marker":"sightseeing:ruins","categories":["sightseeing"],"parent_ids":["country:133","continent:2"],"perex":null,"customer_rating":null,"star_rating":null,"star_rating_unofficial":null,"thumbnail_url":null},{"id":"poi:17448857","level":"poi","rating":0.001,"quadkey":"300303200002101313","location":{"lat":-29.6178818,"lng":28.190179},"bounding_box":null,"name":"Toilets","name_suffix":"Lesotho","url":"https://travel.sygic.com/go/poi:17448857","duration":300,"marker":"other:toilets","categories":[],"parent_ids":["country:133","continent:2"],"perex":null,"customer_rating":null,"star_rating":null,"star_rating_unofficial":null,"thumbnail_url":null},{"id":"poi:19467030","level":"poi","rating":0.001,"quadkey":"300302310113232303","location":{"lat":-29.6850096,"lng":27.3640868},"bounding_box":null,"name":"Toilets","name_suffix":"Lesotho","url":"https://travel.sygic.com/go/poi:19467030","duration":300,"marker":"other:toilets","categories":[],"parent_ids":["country:133","continent:2"],"perex":null,"customer_rating":null,"star_rating":null,"star_rating_unofficial":null,"thumbnail_url":null},{"id":"poi:19467640","level":"poi","rating":0.001,"quadkey":"300302133211201023","location":{"lat":-29.2714844,"lng":27.698208},"bounding_box":null,"name":"Ruins","name_suffix":"Lesotho","url":"https://travel.sygic.com/go/poi:19467640","duration":3600,"marker":"sightseeing:ruins","categories":["sightseeing"],"parent_ids":["country:133","continent:2"],"perex":null,"customer_rating":null,"star_rating":null,"star_rating_unofficial":null,"thumbnail_url":null},{"id":"poi:17680009","level":"poi","rating":0.001,"quadkey":"300302133313221033","location":{"lat":-29.3674553,"lng":28.0532748},"bounding_box":null,"name":"Toilets","name_suffix":"Lesotho","url":"https://travel.sygic.com/go/poi:17680009","duration":300,"marker":"other:toilets","categories":[],"parent_ids":["country:133","continent:2"],"perex":null,"customer_rating":null,"star_rating":null,"star_rating_unofficial":null,"thumbnail_url":null},{"id":"poi:17680011","level":"poi","rating":0.001,"quadkey":"300302133313220333","location":{"lat":-29.3719532,"lng":28.0477361},"bounding_box":null,"name":"Toilets","name_suffix":"Lesotho","url":"https://travel.sygic.com/go/poi:17680011","duration":300,"marker":"other:toilets","categories":[],"parent_ids":["country:133","continent:2"],"perex":null,"customer_rating":null,"star_rating":null,"star_rating_unofficial":null,"thumbnail_url":null},{"id":"poi:17680102","level":"poi","rating":0.001,"quadkey":"300302311020022000","location":{"lat":-29.7176223,"lng":27.4225453},"bounding_box":null,"name":"Toilets","name_suffix":"Lesotho","url":"https://travel.sygic.com/go/poi:17680102","duration":300,"marker":"other:toilets","categories":[],"parent_ids":["country:133","continent:2"],"perex":null,"customer_rating":null,"star_rating":null,"star_rating_unofficial":null,"thumbnail_url":null},{"id":"poi:17680105","level":"poi","rating":0.001,"quadkey":"300302311020022020","location":{"lat":-29.7195697,"lng":27.4225641},"bounding_box":null,"name":"Toilets","name_suffix":"Lesotho","url":"https://travel.sygic.com/go/poi:17680105","duration":300,"marker":"other:toilets","categories":[],"parent_ids":["country:133","continent:2"],"perex":null,"customer_rating":null,"star_rating":null,"star_rating_unofficial":null,"thumbnail_url":null},{"id":"poi:17680520","level":"poi","rating":0.001,"quadkey":"300302133131030023","location":{"lat":-29.0992616,"lng":28.0610236},"bounding_box":null,"name":"Ruins","name_suffix":"Lesotho","url":"https://travel.sygic.com/go/poi:17680520","duration":3600,"marker":"sightseeing:ruins","categories":["sightseeing"],"parent_ids":["country:133","continent:2"],"perex":null,"customer_rating":null,"star_rating":null,"star_rating_unofficial":null,"thumbnail_url":null},{"id":"poi:17684460","level":"poi","rating":0.001,"quadkey":"300302310131313121","location":{"lat":-29.7387659,"lng":27.4179441},"bounding_box":null,"name":"Ruins","name_suffix":"Lesotho","url":"https://travel.sygic.com/go/poi:17684460","duration":3600,"marker":"sightseeing:ruins","categories":["sightseeing"],"parent_ids":["country:133","continent:2"],"perex":null,"customer_rating":null,"star_rating":null,"star_rating_unofficial":null,"thumbnail_url":null},{"id":"poi:17728969","level":"poi","rating":0.001,"quadkey":"300303200131312123","location":{"lat":-29.7403029,"lng":28.8130384},"bounding_box":null,"name":"Toilets","name_suffix":"Sehonghong, Lesotho","url":"https://travel.sygic.com/go/poi:17728969","duration":300,"marker":"other:toilets","categories":[],"parent_ids":["city:1317","country:133","continent:2"],"perex":null,"customer_rating":null,"star_rating":null,"star_rating_unofficial":null,"thumbnail_url":null},{"id":"poi:17729709","level":"poi","rating":0.001,"quadkey":"300303022230131132","location":{"lat":-29.4059486,"lng":28.3859646},"bounding_box":null,"name":"Ruins","name_suffix":"Lesotho","url":"https://travel.sygic.com/go/poi:17729709","duration":3600,"marker":"sightseeing:ruins","categories":["sightseeing"],"parent_ids":["country:133","continent:2"],"perex":null,"customer_rating":null,"star_rating":null,"star_rating_unofficial":null,"thumbnail_url":null},{"id":"poi:17729710","level":"poi","rating":0.001,"quadkey":"300303022230131310","location":{"lat":-29.4061736,"lng":28.3862597},"bounding_box":null,"name":"Ruins","name_suffix":"Lesotho","url":"https://travel.sygic.com/go/poi:17729710","duration":3600,"marker":"sightseeing:ruins","categories":["sightseeing"],"parent_ids":["country:133","continent:2"],"perex":null,"customer_rating":null,"star_rating":null,"star_rating_unofficial":null,"thumbnail_url":null},{"id":"poi:17729714","level":"poi","rating":0.001,"quadkey":"300303022230131310","location":{"lat":-29.4072076,"lng":28.3872499},"bounding_box":null,"name":"Ruins","name_suffix":"Lesotho","url":"https://travel.sygic.com/go/poi:17729714","duration":3600,"marker":"sightseeing:ruins","categories":["sightseeing"],"parent_ids":["country:133","continent:2"],"perex":null,"customer_rating":null,"star_rating":null,"star_rating_unofficial":null,"thumbnail_url":null},{"id":"poi:19765476","level":"poi","rating":0.001,"quadkey":"300302310131133303","location":{"lat":-29.7233411,"lng":27.4187702},"bounding_box":null,"name":"Toilets","name_suffix":"Lesotho","url":"https://travel.sygic.com/go/poi:19765476","duration":300,"marker":"other:toilets","categories":[],"parent_ids":["country:133","continent:2"],"perex":null,"customer_rating":null,"star_rating":null,"star_rating_unofficial":null,"thumbnail_url":null},{"id":"poi:19765495","level":"poi","rating":0.001,"quadkey":"300302310131133310","location":{"lat":-29.7225677,"lng":27.4194529},"bounding_box":null,"name":"Toilets","name_suffix":"Lesotho","url":"https://travel.sygic.com/go/poi:19765495","duration":300,"marker":"other:toilets","categories":[],"parent_ids":["country:133","continent:2"],"perex":null,"customer_rating":null,"star_rating":null,"star_rating_unofficial":null,"thumbnail_url":null},{"id":"poi:19765751","level":"poi","rating":0.001,"quadkey":"300302310131033223","location":{"lat":-29.7254747,"lng":27.368617},"bounding_box":null,"name":"Toilets","name_suffix":"Lesotho","url":"https://travel.sygic.com/go/poi:19765751","duration":300,"marker":"other:toilets","categories":[],"parent_ids":["country:133","continent:2"],"perex":null,"customer_rating":null,"star_rating":null,"star_rating_unofficial":null,"thumbnail_url":null},{"id":"poi:18947117","level":"poi","rating":0.001,"quadkey":"300302311002012011","location":{"lat":-29.6213517,"lng":27.4481156},"bounding_box":null,"name":"Ruins","name_suffix":"Lesotho","url":"https://travel.sygic.com/go/poi:18947117","duration":3600,"marker":"sightseeing:ruins","categories":["sightseeing"],"parent_ids":["country:133","continent:2"],"perex":null,"customer_rating":null,"star_rating":null,"star_rating_unofficial":null,"thumbnail_url":null},{"id":"poi:18949346","level":"poi","rating":0.001,"quadkey":"300303020302212122","location":{"lat":-28.7430501,"lng":28.5042655},"bounding_box":null,"name":"trees","name_suffix":"Lesotho","url":"https://travel.sygic.com/go/poi:18949346","duration":14400,"marker":"relaxing:park","categories":["relaxing"],"parent_ids":["country:133","continent:2"],"perex":null,"customer_rating":null,"star_rating":null,"star_rating_unofficial":null,"thumbnail_url":null},{"id":"poi:18949443","level":"poi","rating":0.001,"quadkey":"300303022332022110","location":{"lat":-29.4879184,"lng":28.6614287},"bounding_box":null,"name":"Ruins","name_suffix":"Lesotho","url":"https://travel.sygic.com/go/poi:18949443","duration":3600,"marker":"sightseeing:ruins","categories":["sightseeing"],"parent_ids":["country:133","continent:2"],"perex":null,"customer_rating":null,"star_rating":null,"star_rating_unofficial":null,"thumbnail_url":null},{"id":"poi:18734394","level":"poi","rating":0.001,"quadkey":"300302310102231312","location":{"lat":-29.6758911,"lng":27.1116096},"bounding_box":null,"name":"Ruins","name_suffix":"Lesotho","url":"https://travel.sygic.com/go/poi:18734394","duration":3600,"marker":"sightseeing:ruins","categories":["sightseeing"],"parent_ids":["country:133","continent:2"],"perex":null,"customer_rating":null,"star_rating":null,"star_rating_unofficial":null,"thumbnail_url":null},{"id":"poi:18734739","level":"poi","rating":0.001,"quadkey":"300302310123001302","location":{"lat":-29.770925,"lng":27.1757901},"bounding_box":null,"name":"Ruins","name_suffix":"Lesotho","url":"https://travel.sygic.com/go/poi:18734739","duration":3600,"marker":"sightseeing:ruins","categories":["sightseeing"],"parent_ids":["country:133","continent:2"],"perex":null,"customer_rating":null,"star_rating":null,"star_rating_unofficial":null,"thumbnail_url":null},{"id":"poi:18843343","level":"poi","rating":0.001,"quadkey":"300302310102302031","location":{"lat":-29.6622923,"lng":27.1193023},"bounding_box":null,"name":"Ruins","name_suffix":"Lesotho","url":"https://travel.sygic.com/go/poi:18843343","duration":3600,"marker":"sightseeing:ruins","categories":["sightseeing"],"parent_ids":["country:133","continent:2"],"perex":null,"customer_rating":null,"star_rating":null,"star_rating_unofficial":null,"thumbnail_url":null},{"id":"poi:18844097","level":"poi","rating":0.001,"quadkey":"300303200131313223","location":{"lat":-29.7448869,"lng":28.8188623},"bounding_box":null,"name":"Toilets","name_suffix":"Sehonghong, Lesotho","url":"https://travel.sygic.com/go/poi:18844097","duration":300,"marker":"other:toilets","categories":[],"parent_ids":["city:1317","country:133","continent:2"],"perex":null,"customer_rating":null,"star_rating":null,"star_rating_unofficial":null,"thumbnail_url":null},{"id":"poi:18884501","level":"poi","rating":0.001,"quadkey":"300302310101222121","location":{"lat":-29.6049114,"lng":27.166093},"bounding_box":null,"name":"Ruins","name_suffix":"Lesotho","url":"https://travel.sygic.com/go/poi:18884501","duration":3600,"marker":"sightseeing:ruins","categories":["sightseeing"],"parent_ids":["country:133","continent:2"],"perex":null,"customer_rating":null,"star_rating":null,"star_rating_unofficial":null,"thumbnail_url":null},{"id":"poi:18582510","level":"poi","rating":0.001,"quadkey":"300302133202112101","location":{"lat":-29.3157907,"lng":27.4958767},"bounding_box":null,"name":"Captain Dorego's","name_suffix":"Maseru, Lesotho","url":"https://travel.sygic.com/go/poi:18582510","duration":3600,"marker":"eating:restaurant:seafood","categories":["eating"],"parent_ids":["city:1314","country:133","continent:2"],"perex":null,"customer_rating":null,"star_rating":null,"star_rating_unofficial":null,"thumbnail_url":null},{"id":"poi:20674770","level":"poi","rating":0.001,"quadkey":"300303022123103030","location":{"lat":-29.1650275,"lng":28.6228824},"bounding_box":null,"name":"Ruins","name_suffix":"Lesotho","url":"https://travel.sygic.com/go/poi:20674770","duration":1800,"marker":"sightseeing:ruins","categories":["sightseeing"],"parent_ids":["country:133","continent:2"],"perex":null,"customer_rating":null,"star_rating":null,"star_rating_unofficial":null,"thumbnail_url":null},{"id":"poi:18604599","level":"poi","rating":0.001,"quadkey":"300303022330211323","location":{"lat":-29.4289491,"lng":28.6932137},"bounding_box":null,"name":"Ruins","name_suffix":"Nqobelle, Lesotho","url":"https://travel.sygic.com/go/poi:18604599","duration":3600,"marker":"sightseeing:ruins","categories":["sightseeing"],"parent_ids":["region:1034574","country:133","continent:2"],"perex":null,"customer_rating":null,"star_rating":null,"star_rating_unofficial":null,"thumbnail_url":null},{"id":"poi:18785759","level":"poi","rating":0.001,"quadkey":"300302313031031122","location":{"lat":-30.3204706,"lng":27.7242231},"bounding_box":null,"name":"Ruins","name_suffix":"Lesotho","url":"https://travel.sygic.com/go/poi:18785759","duration":3600,"marker":"sightseeing:ruins","categories":["sightseeing"],"parent_ids":["country:133","continent:2"],"perex":null,"customer_rating":null,"star_rating":null,"star_rating_unofficial":null,"thumbnail_url":null},{"id":"poi:18785856","level":"poi","rating":0.001,"quadkey":"300303020211033312","location":{"lat":-28.6495265,"lng":28.4310798},"bounding_box":null,"name":"tree","name_suffix":"Lesotho","url":"https://travel.sygic.com/go/poi:18785856","duration":14400,"marker":"relaxing:park","categories":["relaxing"],"parent_ids":["country:133","continent:2"],"perex":null,"customer_rating":null,"star_rating":null,"star_rating_unofficial":null,"thumbnail_url":null},{"id":"poi:18850089","level":"poi","rating":0.001,"quadkey":"300302310120110223","location":{"lat":-29.6969461,"lng":27.1380611},"bounding_box":null,"name":"Ruins","name_suffix":"Lesotho","url":"https://travel.sygic.com/go/poi:18850089","duration":3600,"marker":"sightseeing:ruins","categories":["sightseeing"],"parent_ids":["country:133","continent:2"],"perex":null,"customer_rating":null,"star_rating":null,"star_rating_unofficial":null,"thumbnail_url":null},{"id":"poi:18850114","level":"poi","rating":0.001,"quadkey":"300302310120112231","location":{"lat":-29.7055852,"lng":27.1407123},"bounding_box":null,"name":"Ruins","name_suffix":"Lesotho","url":"https://travel.sygic.com/go/poi:18850114","duration":3600,"marker":"sightseeing:ruins","categories":["sightseeing"],"parent_ids":["country:133","continent:2"],"perex":null,"customer_rating":null,"star_rating":null,"star_rating_unofficial":null,"thumbnail_url":null},{"id":"poi:18851980","level":"poi","rating":0.001,"quadkey":"300303020323331021","location":{"lat":-28.9058207,"lng":28.6432927},"bounding_box":null,"name":"tree","name_suffix":"Lesotho","url":"https://travel.sygic.com/go/poi:18851980","duration":14400,"marker":"relaxing:park","categories":["relaxing"],"parent_ids":["country:133","continent:2"],"perex":null,"customer_rating":null,"star_rating":null,"star_rating_unofficial":null,"thumbnail_url":null},{"id":"poi:19201023","level":"poi","rating":0.001,"quadkey":"300302133311221332","location":{"lat":-29.2951589,"lng":28.0569234},"bounding_box":null,"name":"Ruins","name_suffix":"Lesotho","url":"https://travel.sygic.com/go/poi:19201023","duration":3600,"marker":"sightseeing:ruins","categories":["sightseeing"],"parent_ids":["country:133","continent:2"],"perex":null,"customer_rating":null,"star_rating":null,"star_rating_unofficial":null,"thumbnail_url":null},{"id":"poi:18957093","level":"poi","rating":0.001,"quadkey":"300303022123322033","location":{"lat":-29.2240775,"lng":28.6125509},"bounding_box":null,"name":"Ruins","name_suffix":"Lesotho","url":"https://travel.sygic.com/go/poi:18957093","duration":3600,"marker":"sightseeing:ruins","categories":["sightseeing"],"parent_ids":["country:133","continent:2"],"perex":null,"customer_rating":null,"star_rating":null,"star_rating_unofficial":null,"thumbnail_url":null},{"id":"poi:18959561","level":"poi","rating":0.001,"quadkey":"300303200111301203","location":{"lat":-29.5795545,"lng":28.7966326},"bounding_box":null,"name":"Ruins","name_suffix":"Lesotho","url":"https://travel.sygic.com/go/poi:18959561","duration":3600,"marker":"sightseeing:ruins","categories":["sightseeing"],"parent_ids":["country:133","continent:2"],"perex":null,"customer_rating":null,"star_rating":null,"star_rating_unofficial":null,"thumbnail_url":null},{"id":"poi:18959604","level":"poi","rating":0.001,"quadkey":"300303200111300132","location":{"lat":-29.5772039,"lng":28.7928371},"bounding_box":null,"name":"Ruins","name_suffix":"Lesotho","url":"https://travel.sygic.com/go/poi:18959604","duration":3600,"marker":"sightseeing:ruins","categories":["sightseeing"],"parent_ids":["country:133","continent:2"],"perex":null,"customer_rating":null,"star_rating":null,"star_rating_unofficial":null,"thumbnail_url":null},{"id":"poi:21144730","level":"poi","rating":0.001,"quadkey":"300303200223002232","location":{"lat":-30.0876598,"lng":28.2164418},"bounding_box":null,"name":"Ruins","name_suffix":"Lesotho","url":"https://travel.sygic.com/go/poi:21144730","duration":1800,"marker":"sightseeing:ruins","categories":["sightseeing"],"parent_ids":["country:133","continent:2"],"perex":null,"customer_rating":null,"star_rating":null,"star_rating_unofficial":null,"thumbnail_url":null},{"id":"poi:21232773","level":"poi","rating":0.001,"quadkey":"300302311332030132","location":{"lat":-30.0925598,"lng":27.9803247},"bounding_box":null,"name":"Ruins","name_suffix":"Lesotho","url":"https://travel.sygic.com/go/poi:21232773","duration":1800,"marker":"sightseeing:ruins","categories":["sightseeing"],"parent_ids":["country:133","continent:2"],"perex":null,"customer_rating":null,"star_rating":null,"star_rating_unofficial":null,"thumbnail_url":null},{"id":"poi:21232852","level":"poi","rating":0.001,"quadkey":"300302311332030333","location":{"lat":-30.0965206,"lng":27.9813635},"bounding_box":null,"name":"Ruins","name_suffix":"Lesotho","url":"https://travel.sygic.com/go/poi:21232852","duration":1800,"marker":"sightseeing:ruins","categories":["sightseeing"],"parent_ids":["country:133","continent:2"],"perex":null,"customer_rating":null,"star_rating":null,"star_rating_unofficial":null,"thumbnail_url":null},{"id":"poi:21276163","level":"poi","rating":0.001,"quadkey":"300303023212321221","location":{"lat":-29.3704312,"lng":29.0611322},"bounding_box":null,"name":"Ruins","name_suffix":"Ha Setefane, Lesotho","url":"https://travel.sygic.com/go/poi:21276163","duration":1800,"marker":"sightseeing:ruins","categories":["sightseeing"],"parent_ids":["region:914136","country:133","continent:2"],"perex":null,"customer_rating":null,"star_rating":null,"star_rating_unofficial":null,"thumbnail_url":null},{"id":"poi:21276370","level":"poi","rating":0.001,"quadkey":"300303023230001010","location":{"lat":-29.3827734,"lng":29.0189776},"bounding_box":null,"name":"Ruins","name_suffix":"Lesotho","url":"https://travel.sygic.com/go/poi:21276370","duration":1800,"marker":"sightseeing:ruins","categories":["sightseeing"],"parent_ids":["country:133","continent:2"],"perex":null,"customer_rating":null,"star_rating":null,"star_rating_unofficial":null,"thumbnail_url":null},{"id":"poi:21276373","level":"poi","rating":0.001,"quadkey":"300303023230001100","location":{"lat":-29.3824976,"lng":29.0211797},"bounding_box":null,"name":"Ruins","name_suffix":"Lesotho","url":"https://travel.sygic.com/go/poi:21276373","duration":1800,"marker":"sightseeing:ruins","categories":["sightseeing"],"parent_ids":["country:133","continent:2"],"perex":null,"customer_rating":null,"star_rating":null,"star_rating_unofficial":null,"thumbnail_url":null},{"id":"poi:21200215","level":"poi","rating":0.001,"quadkey":"300302311032232211","location":{"lat":-29.8367407,"lng":27.624861},"bounding_box":null,"name":"Bushmen Rock Art","name_suffix":"Mafeteng, Lesotho","url":"https://travel.sygic.com/go/poi:21200215","duration":3600,"marker":"sightseeing","categories":["sightseeing"],"parent_ids":["region:2010584","country:133","continent:2"],"perex":null,"customer_rating":null,"star_rating":null,"star_rating_unofficial":null,"thumbnail_url":null},{"id":"poi:21245040","level":"poi","rating":0.001,"quadkey":"300302313033023203","location":{"lat":-30.4083463,"lng":27.6990654},"bounding_box":null,"name":"Ruins","name_suffix":"Moyeni (Quthing), Lesotho","url":"https://travel.sygic.com/go/poi:21245040","duration":1800,"marker":"sightseeing:ruins","categories":["sightseeing"],"parent_ids":["city:357612","country:133","continent:2"],"perex":null,"customer_rating":null,"star_rating":null,"star_rating_unofficial":null,"thumbnail_url":null},{"id":"poi:21245267","level":"poi","rating":0.001,"quadkey":"300302313120013211","location":{"lat":-30.3119133,"lng":27.81155},"bounding_box":null,"name":"Ruins","name_suffix":"Ha Sempe, Lesotho","url":"https://travel.sygic.com/go/poi:21245267","duration":1800,"marker":"sightseeing:ruins","categories":["sightseeing"],"parent_ids":["region:1049327","country:133","continent:2"],"perex":null,"customer_rating":null,"star_rating":null,"star_rating_unofficial":null,"thumbnail_url":null},{"id":"poi:15365291","level":"poi","rating":0.001,"quadkey":"300302313123132233","location":{"lat":-30.4107258,"lng":27.9315175},"bounding_box":null,"name":"Ruins","name_suffix":"Lesotho","url":"https://travel.sygic.com/go/poi:15365291","duration":3600,"marker":"sightseeing:ruins","categories":["sightseeing"],"parent_ids":["country:133","continent:2"],"perex":null,"customer_rating":null,"star_rating":null,"star_rating_unofficial":null,"thumbnail_url":null},{"id":"poi:15367741","level":"poi","rating":0.001,"quadkey":"300302313121022223","location":{"lat":-30.3347146,"lng":27.8627405},"bounding_box":null,"name":"Ruins","name_suffix":"Lesotho","url":"https://travel.sygic.com/go/poi:15367741","duration":3600,"marker":"sightseeing:ruins","categories":["sightseeing"],"parent_ids":["country:133","continent:2"],"perex":null,"customer_rating":null,"star_rating":null,"star_rating_unofficial":null,"thumbnail_url":null},{"id":"poi:15367745","level":"poi","rating":0.001,"quadkey":"300302313121022222","location":{"lat":-30.3345333,"lng":27.8620137},"bounding_box":null,"name":"Ruins","name_suffix":"Lesotho","url":"https://travel.sygic.com/go/poi:15367745","duration":3600,"marker":"sightseeing:ruins","categories":["sightseeing"],"parent_ids":["country:133","continent:2"],"perex":null,"customer_rating":null,"star_rating":null,"star_rating_unofficial":null,"thumbnail_url":null},{"id":"poi:15440092","level":"poi","rating":0.001,"quadkey":"300303022020120321","location":{"lat":-29.1020406,"lng":28.1761752},"bounding_box":null,"name":"Toilets","name_suffix":"Lesotho","url":"https://travel.sygic.com/go/poi:15440092","duration":300,"marker":"other:toilets","categories":[],"parent_ids":["country:133","continent:2"],"perex":null,"customer_rating":null,"star_rating":null,"star_rating_unofficial":null,"thumbnail_url":null},{"id":"poi:15440097","level":"poi","rating":0.001,"quadkey":"300303022020120330","location":{"lat":-29.1025618,"lng":28.1775596},"bounding_box":null,"name":"Toilets","name_suffix":"Lesotho","url":"https://travel.sygic.com/go/poi:15440097","duration":300,"marker":"other:toilets","categories":[],"parent_ids":["country:133","continent:2"],"perex":null,"customer_rating":null,"star_rating":null,"star_rating_unofficial":null,"thumbnail_url":null},{"id":"poi:15440098","level":"poi","rating":0.001,"quadkey":"300303022020120330","location":{"lat":-29.102216,"lng":28.1775486},"bounding_box":null,"name":"Toilets","name_suffix":"Lesotho","url":"https://travel.sygic.com/go/poi:15440098","duration":300,"marker":"other:toilets","categories":[],"parent_ids":["country:133","continent:2"],"perex":null,"customer_rating":null,"star_rating":null,"star_rating_unofficial":null,"thumbnail_url":null},{"id":"poi:15440099","level":"poi","rating":0.001,"quadkey":"300303022020120312","location":{"lat":-29.1016565,"lng":28.1776748},"bounding_box":null,"name":"Toilets","name_suffix":"Lesotho","url":"https://travel.sygic.com/go/poi:15440099","duration":300,"marker":"other:toilets","categories":[],"parent_ids":["country:133","continent:2"],"perex":null,"customer_rating":null,"star_rating":null,"star_rating_unofficial":null,"thumbnail_url":null},{"id":"poi:15440117","level":"poi","rating":0.001,"quadkey":"300303022020121200","location":{"lat":-29.1005614,"lng":28.1809751},"bounding_box":null,"name":"Toilets","name_suffix":"Lesotho","url":"https://travel.sygic.com/go/poi:15440117","duration":300,"marker":"other:toilets","categories":[],"parent_ids":["country:133","continent:2"],"perex":null,"customer_rating":null,"star_rating":null,"star_rating_unofficial":null,"thumbnail_url":null},{"id":"poi:15440119","level":"poi","rating":0.001,"quadkey":"300303022020121201","location":{"lat":-29.1003011,"lng":28.1819097},"bounding_box":null,"name":"Toilets","name_suffix":"Lesotho","url":"https://travel.sygic.com/go/poi:15440119","duration":300,"marker":"other:toilets","categories":[],"parent_ids":["country:133","continent:2"],"perex":null,"customer_rating":null,"star_rating":null,"star_rating_unofficial":null,"thumbnail_url":null},{"id":"poi:16536326","level":"poi","rating":0.001,"quadkey":"300302311232103030","location":{"lat":-30.0811539,"lng":27.6564481},"bounding_box":null,"name":"Waterfall","name_suffix":"Lesotho","url":"https://travel.sygic.com/go/poi:16536326","duration":1800,"marker":"hiking:waterfall","categories":["hiking"],"parent_ids":["country:133","continent:2"],"perex":null,"customer_rating":null,"star_rating":null,"star_rating_unofficial":null,"thumbnail_url":null},{"id":"poi:16537934","level":"poi","rating":0.001,"quadkey":"300303200022122231","location":{"lat":-29.8003173,"lng":28.1737228},"bounding_box":null,"name":"Waterfall","name_suffix":"Lesobeng, Lesotho","url":"https://travel.sygic.com/go/poi:16537934","duration":1800,"marker":"hiking:waterfall","categories":["hiking"],"parent_ids":["city:1311","country:133","continent:2"],"perex":null,"customer_rating":null,"star_rating":null,"star_rating_unofficial":null,"thumbnail_url":null},{"id":"poi:16722135","level":"poi","rating":0.001,"quadkey":"300303020303201010","location":{"lat":-28.7300689,"lng":28.5787524},"bounding_box":null,"name":"Waterfall","name_suffix":"Lesotho","url":"https://travel.sygic.com/go/poi:16722135","duration":1800,"marker":"hiking:waterfall","categories":["hiking"],"parent_ids":["country:133","continent:2"],"perex":null,"customer_rating":null,"star_rating":null,"star_rating_unofficial":null,"thumbnail_url":null},{"id":"poi:16717838","level":"poi","rating":0.001,"quadkey":"300302133202311112","location":{"lat":-29.3460401,"lng":27.5079456},"bounding_box":null,"name":"Paradise Lodge","name_suffix":"Maseru, Lesotho","url":"https://travel.sygic.com/go/poi:16717838","duration":3600,"marker":"sleeping:apartment:guest_accommodation","categories":["sleeping"],"parent_ids":["city:1314","country:133","continent:2"],"perex":null,"customer_rating":null,"star_rating":null,"star_rating_unofficial":null,"thumbnail_url":null},{"id":"poi:16717912","level":"poi","rating":0.001,"quadkey":"300302133203202023","location":{"lat":-29.3571043,"lng":27.5113157},"bounding_box":null,"name":"Lily Supermarket","name_suffix":"Lesotho","url":"https://travel.sygic.com/go/poi:16717912","duration":3600,"marker":"shopping:convenience_store","categories":["shopping"],"parent_ids":["country:133","continent:2"],"perex":null,"customer_rating":null,"star_rating":null,"star_rating_unofficial":null,"thumbnail_url":null},{"id":"poi:16717913","level":"poi","rating":0.001,"quadkey":"300302133203200222","location":{"lat":-29.3533461,"lng":27.5098933},"bounding_box":null,"name":"Convenience Store","name_suffix":"Lesotho","url":"https://travel.sygic.com/go/poi:16717913","duration":3600,"marker":"shopping:convenience_store","categories":["shopping"],"parent_ids":["country:133","continent:2"],"perex":null,"customer_rating":null,"star_rating":null,"star_rating_unofficial":null,"thumbnail_url":null},{"id":"poi:16718063","level":"poi","rating":0.001,"quadkey":"300302133203202023","location":{"lat":-29.3571728,"lng":27.5113562},"bounding_box":null,"name":"Easy Public Bar","name_suffix":"Lesotho","url":"https://travel.sygic.com/go/poi:16718063","duration":7200,"marker":"going_out:bar","categories":["going_out"],"parent_ids":["country:133","continent:2"],"perex":null,"customer_rating":null,"star_rating":null,"star_rating_unofficial":null,"thumbnail_url":null},{"id":"poi:16338878","level":"poi","rating":0.001,"quadkey":"300302310121031302","location":{"lat":-29.7134784,"lng":27.1972334},"bounding_box":null,"name":"Ruins","name_suffix":"Lesotho","url":"https://travel.sygic.com/go/poi:16338878","duration":3600,"marker":"sightseeing:ruins","categories":["sightseeing"],"parent_ids":["country:133","continent:2"],"perex":null,"customer_rating":null,"star_rating":null,"star_rating_unofficial":null,"thumbnail_url":null},{"id":"poi:16551019","level":"poi","rating":0.001,"quadkey":"300303200212322232","location":{"lat":-29.9921644,"lng":28.3486536},"bounding_box":null,"name":"Waterfall","name_suffix":"Lesotho","url":"https://travel.sygic.com/go/poi:16551019","duration":1800,"marker":"hiking:waterfall","categories":["hiking"],"parent_ids":["country:133","continent:2"],"perex":null,"customer_rating":null,"star_rating":null,"star_rating_unofficial":null,"thumbnail_url":null},{"id":"poi:15034952","level":"poi","rating":0.001,"quadkey":"300303020203302221","location":{"lat":-28.7469684,"lng":28.258413},"bounding_box":null,"name":"Track","name_suffix":"Butha-Buthe, Lesotho","url":"https://travel.sygic.com/go/poi:15034952","duration":7200,"marker":"sports:track","categories":["doing_sports"],"parent_ids":["city:1148096","country:133","continent:2"],"perex":null,"customer_rating":null,"star_rating":null,"star_rating_unofficial":null,"thumbnail_url":null},{"id":"poi:15576923","level":"poi","rating":0.001,"quadkey":"300302313032331203","location":{"lat":-30.4361893,"lng":27.6771687},"bounding_box":null,"name":"Ruins","name_suffix":"Moyeni (Quthing), Lesotho","url":"https://travel.sygic.com/go/poi:15576923","duration":3600,"marker":"sightseeing:ruins","categories":["sightseeing"],"parent_ids":["city:357612","country:133","continent:2"],"perex":null,"customer_rating":null,"star_rating":null,"star_rating_unofficial":null,"thumbnail_url":null},{"id":"poi:15364712","level":"poi","rating":0.001,"quadkey":"300302313123111221","location":{"lat":-30.3809708,"lng":27.9405912},"bounding_box":null,"name":"Ruins","name_suffix":"Lesotho","url":"https://travel.sygic.com/go/poi:15364712","duration":3600,"marker":"sightseeing:ruins","categories":["sightseeing"],"parent_ids":["country:133","continent:2"],"perex":null,"customer_rating":null,"star_rating":null,"star_rating_unofficial":null,"thumbnail_url":null},{"id":"poi:15360045","level":"poi","rating":0.001,"quadkey":"300303200213201112","location":{"lat":-29.9561565,"lng":28.4089642},"bounding_box":null,"name":"Ruins","name_suffix":"Nkaus, Lesotho","url":"https://travel.sygic.com/go/poi:15360045","duration":3600,"marker":"sightseeing:ruins","categories":["sightseeing"],"parent_ids":["city:1315","country:133","continent:2"],"perex":null,"customer_rating":null,"star_rating":null,"star_rating_unofficial":null,"thumbnail_url":null},{"id":"poi:15360080","level":"poi","rating":0.001,"quadkey":"300303200213232111","location":{"lat":-29.9842293,"lng":28.4215777},"bounding_box":null,"name":"Ruins","name_suffix":"Lesotho","url":"https://travel.sygic.com/go/poi:15360080","duration":3600,"marker":"sightseeing:ruins","categories":["sightseeing"],"parent_ids":["country:133","continent:2"],"perex":null,"customer_rating":null,"star_rating":null,"star_rating_unofficial":null,"thumbnail_url":null},{"id":"poi:16267864","level":"poi","rating":0.001,"quadkey":"300302133131103003","location":{"lat":-29.0866361,"lng":28.0943432},"bounding_box":null,"name":"Ruins","name_suffix":"Lesotho","url":"https://travel.sygic.com/go/poi:16267864","duration":3600,"marker":"sightseeing:ruins","categories":["sightseeing"],"parent_ids":["country:133","continent:2"],"perex":null,"customer_rating":null,"star_rating":null,"star_rating_unofficial":null,"thumbnail_url":null},{"id":"poi:16267993","level":"poi","rating":0.001,"quadkey":"300302133131010122","location":{"lat":-29.0796223,"lng":28.0653535},"bounding_box":null,"name":"Ruins","name_suffix":"Lesotho","url":"https://travel.sygic.com/go/poi:16267993","duration":3600,"marker":"sightseeing:ruins","categories":["sightseeing"],"parent_ids":["country:133","continent:2"],"perex":null,"customer_rating":null,"star_rating":null,"star_rating_unofficial":null,"thumbnail_url":null},{"id":"poi:16267995","level":"poi","rating":0.001,"quadkey":"300302133131010123","location":{"lat":-29.079389,"lng":28.0662403},"bounding_box":null,"name":"Ruins","name_suffix":"Lesotho","url":"https://travel.sygic.com/go/poi:16267995","duration":3600,"marker":"sightseeing:ruins","categories":["sightseeing"],"parent_ids":["country:133","continent:2"],"perex":null,"customer_rating":null,"star_rating":null,"star_rating_unofficial":null,"thumbnail_url":null},{"id":"poi:16268110","level":"poi","rating":0.001,"quadkey":"300302133131011030","location":{"lat":-29.0781383,"lng":28.0730317},"bounding_box":null,"name":"Ruins","name_suffix":"Lesotho","url":"https://travel.sygic.com/go/poi:16268110","duration":3600,"marker":"sightseeing:ruins","categories":["sightseeing"],"parent_ids":["country:133","continent:2"],"perex":null,"customer_rating":null,"star_rating":null,"star_rating_unofficial":null,"thumbnail_url":null},