{"status_code":200,"data":{"places":[{"id":"poi:10869389","level":"poi","rating":0.0037874698364465,"quadkey":"122313323032310321","location":{"lat":11.5577493,"lng":43.1404893},"bounding_box":null,"name":"La Mer Rouge albhr alahmr","name_suffix":"Gibuti, Gibuti","url":"https://travel.sygic.com/go/poi:10869389","duration":3600,"marker":"eating:restaurant:french","categories":["eating"],"parent_ids":["city:1493","region:60346","country:145","continent:2"],"perex":null,"customer_rating":null,"star_rating":null,"star_rating_unofficial":null,"thumbnail_url":null},{"id":"poi:24863000","level":"poi","rating":0.0030416666666667,"quadkey":"122313322111333221","location":{"lat":11.7836882,"lng":42.881422},"bounding_box":null,"name":"Tadjoura","name_suffix":"Tadjoura, Gibuti","url":"https://travel.sygic.com/go/poi:24863000","duration":1800,"marker":"traveling:ferry_terminal","categories":["traveling"],"parent_ids":["city:432769","region:61757","region:59260","country:145","continent:2"],"perex":null,"customer_rating":null,"star_rating":null,"star_rating_unofficial":null,"thumbnail_url":null},{"id":"poi:22060945","level":"poi","rating":0.003,"quadkey":"122313321301313033","location":{"lat":12.1529418,"lng":43.4113104},"bounding_box":null,"name":"Golfo di Tagiura","name_suffix":"Godorya, Gibuti","url":"https://travel.sygic.com/go/poi:22060945","duration":3600,"marker":"default","categories":[],"parent_ids":["region:1465731","region:61695","region:60343","country:145","continent:2"],"perex":"Il golfo di Tadjoura è un golfo dell'oceano Indiano situato nel Corno d'Africa a sud dello stretto di Bab el-Mandeb, in corrispondenza dell…","customer_rating":null,"star_rating":null,"star_rating_unofficial":null,"thumbnail_url":null},{"id":"poi:20077032","level":"poi","rating":0.003,"quadkey":"122313322030122123","location":{"lat":11.6580416,"lng":42.4145245},"bounding_box":null,"name":"Lago Assal","name_suffix":"Tadjourah Region, Gibuti","url":"https://travel.sygic.com/go/poi:20077032","duration":3600,"marker":"default","categories":[],"parent_ids":["region:61754","region:59260","country:145","continent:2"],"perex":"Il lago di Assal è un lago che si trova nella repubblica di Gibuti, nel cosiddetto triangolo di Afar e con i suoi 155 metri sotto il…","customer_rating":null,"star_rating":null,"star_rating_unofficial":null,"thumbnail_url":null},{"id":"poi:20028978","level":"poi","rating":0.003,"quadkey":"122313323013213331","location":{"lat":11.7191213,"lng":43.197936},"bounding_box":null,"name":"Moucha Island","name_suffix":"Djibouti, Gibuti","url":"https://travel.sygic.com/go/poi:20028978","duration":7200,"marker":"sports:water:diving:scuba","categories":["doing_sports"],"parent_ids":["region:60346","country:145","continent:2"],"perex":"Moucha Island is a small coral island off the coast of Djibouti. It is located at the center of the Gulf of Tadjoura.","customer_rating":null,"star_rating":null,"star_rating_unofficial":null,"thumbnail_url":null},{"id":"poi:51915","level":"poi","rating":0.0024824423237283,"quadkey":"122313323032302313","location":{"lat":11.548653,"lng":43.1199646},"bounding_box":null,"name":"Djibouti (JIB)","name_suffix":"Balbala, Gibuti","url":"https://travel.sygic.com/go/poi:51915","duration":1800,"marker":"traveling","categories":["traveling"],"parent_ids":["city:1773797","region:60346","country:145","continent:2"],"perex":null,"customer_rating":null,"star_rating":null,"star_rating_unofficial":null,"thumbnail_url":null},{"id":"poi:17074305","level":"poi","rating":0.002,"quadkey":"122313323032210303","location":{"lat":11.5587926,"lng":43.0960471},"bounding_box":null,"name":"Alrahma hospital","name_suffix":"Balbala, Gibuti","url":"https://travel.sygic.com/go/poi:17074305","duration":3600,"marker":"other:doctor:hospital","categories":[],"parent_ids":["city:1773797","region:60346","country:145","continent:2"],"perex":null,"customer_rating":null,"star_rating":null,"star_rating_unofficial":null,"thumbnail_url":null},{"id":"poi:24773764","level":"poi","rating":0.002,"quadkey":"122313323032311032","location":{"lat":11.5607951,"lng":43.1462122},"bounding_box":null,"name":"Urban Kitchen","name_suffix":"Gibuti, Gibuti","url":"https://travel.sygic.com/go/poi:24773764","duration":3600,"marker":"eating:restaurant","categories":["eating"],"parent_ids":["city:1493","region:60346","country:145","continent:2"],"perex":null,"customer_rating":null,"star_rating":null,"star_rating_unofficial":null,"thumbnail_url":null},{"id":"poi:6496879","level":"poi","rating":0.002,"quadkey":"122313323032111132","location":{"lat":11.6038664,"lng":43.1527018},"bounding_box":null,"name":"Cafe de la Gare mqhy almhtt","name_suffix":"Gibuti, Gibuti","url":"https://travel.sygic.com/go/poi:6496879","duration":3600,"marker":"eating:restaurant","categories":["eating"],"parent_ids":["city:1493","region:60346","country:145","continent:2"],"perex":null,"customer_rating":null,"star_rating":null,"star_rating_unofficial":null,"thumbnail_url":null},{"id":"poi:19869440","level":"poi","rating":0.002,"quadkey":"122313323032113021","location":{"lat":11.594759,"lng":43.1455225},"bounding_box":null,"name":"Air-Djibouti HQ","name_suffix":"Gibuti, Gibuti","url":"https://travel.sygic.com/go/poi:19869440","duration":3600,"marker":"shopping","categories":["shopping"],"parent_ids":["city:1493","region:60346","country:145","continent:2"],"perex":null,"customer_rating":null,"star_rating":null,"star_rating_unofficial":null,"thumbnail_url":null},{"id":"poi:24786154","level":"poi","rating":0.002,"quadkey":"122331100113331201","location":{"lat":11.021994,"lng":42.8810659},"bounding_box":null,"name":"Camp écotouristique d'ASSAMO","name_suffix":"Ali Sabieh, Gibuti","url":"https://travel.sygic.com/go/poi:24786154","duration":3600,"marker":"sightseeing","categories":["sightseeing"],"parent_ids":["region:60201","country:145","continent:2"],"perex":null,"customer_rating":null,"star_rating":null,"star_rating_unofficial":null,"thumbnail_url":null},{"id":"poi:10528559","level":"poi","rating":0.002,"quadkey":"122313323030333300","location":{"lat":11.6133793,"lng":43.1488634},"bounding_box":null,"name":"Kurry - Flavor of India","name_suffix":"Gibuti, Gibuti","url":"https://travel.sygic.com/go/poi:10528559","duration":3600,"marker":"eating:restaurant:indian","categories":["eating"],"parent_ids":["city:1493","region:60346","country:145","continent:2"],"perex":null,"customer_rating":null,"star_rating":null,"star_rating_unofficial":null,"thumbnail_url":null},{"id":"poi:24786200","level":"poi","rating":0.002,"quadkey":"122313322330110112","location":{"lat":11.3493267,"lng":42.7897108},"bounding_box":null,"name":"Campement Écotouristique de Djallelo","name_suffix":"Arta, Gibuti","url":"https://travel.sygic.com/go/poi:24786200","duration":3600,"marker":"sleeping:camp_site","categories":["hiking","sleeping"],"parent_ids":["region:62575","country:145","continent:2"],"perex":null,"customer_rating":null,"star_rating":null,"star_rating_unofficial":null,"thumbnail_url":null},{"id":"poi:19880713","level":"poi","rating":0.002,"quadkey":"122313323201111133","location":{"lat":11.5184732,"lng":43.0651748},"bounding_box":null,"name":"CIA drones are here","name_suffix":"Arta, Gibuti","url":"https://travel.sygic.com/go/poi:19880713","duration":3600,"marker":"sightseeing","categories":["sightseeing"],"parent_ids":["region:62575","country:145","continent:2"],"perex":null,"customer_rating":null,"star_rating":null,"star_rating_unofficial":null,"thumbnail_url":null},{"id":"poi:19871231","level":"poi","rating":0.002,"quadkey":"122313323032111110","location":{"lat":11.608797,"lng":43.1520516},"bounding_box":null,"name":"Embassy of the Russian Federation","name_suffix":"Gibuti, Gibuti","url":"https://travel.sygic.com/go/poi:19871231","duration":3600,"marker":"other:building:embassy","categories":[],"parent_ids":["city:1493","region:60346","country:145","continent:2"],"perex":null,"customer_rating":null,"star_rating":null,"star_rating_unofficial":null,"thumbnail_url":null},{"id":"poi:24771353","level":"poi","rating":0.002,"quadkey":"122313323032133330","location":{"lat":11.5686036,"lng":43.1523045},"bounding_box":null,"name":"Moulk Center","name_suffix":"Gibuti, Gibuti","url":"https://travel.sygic.com/go/poi:24771353","duration":3600,"marker":"default","categories":[],"parent_ids":["city:1493","region:60346","country:145","continent:2"],"perex":null,"customer_rating":null,"star_rating":null,"star_rating_unofficial":null,"thumbnail_url":null},{"id":"poi:10530343","level":"poi","rating":0.002,"quadkey":"122313323033200112","location":{"lat":11.5643855,"lng":43.1632936},"bounding_box":null,"name":"Embassy of the Federal Republic of Germany","name_suffix":"Gibuti, Gibuti","url":"https://travel.sygic.com/go/poi:10530343","duration":3600,"marker":"other:building:embassy","categories":[],"parent_ids":["city:1493","region:60346","country:145","continent:2"],"perex":null,"customer_rating":null,"star_rating":null,"star_rating_unofficial":null,"thumbnail_url":null},{"id":"poi:16662172","level":"poi","rating":0.001,"quadkey":"122313323030333102","location":{"lat":11.6185494,"lng":43.1490882},"bounding_box":null,"name":"Ambassade de la Chine Populaire sfart alsyn alshbyt","name_suffix":"Gibuti, Gibuti","url":"https://travel.sygic.com/go/poi:16662172","duration":3600,"marker":"other:building:embassy","categories":[],"parent_ids":["city:1493","region:60346","country:145","continent:2"],"perex":null,"customer_rating":null,"star_rating":null,"star_rating_unofficial":null,"thumbnail_url":null},{"id":"poi:18393798","level":"poi","rating":0.001,"quadkey":"122313323032111200","location":{"lat":11.6036081,"lng":43.1441434},"bounding_box":null,"name":"Attraction","name_suffix":"Gibuti, Gibuti","url":"https://travel.sygic.com/go/poi:18393798","duration":3600,"marker":"sightseeing","categories":["sightseeing"],"parent_ids":["city:1493","region:60346","country:145","continent:2"],"perex":null,"customer_rating":null,"star_rating":null,"star_rating_unofficial":null,"thumbnail_url":null},{"id":"poi:7582686","level":"poi","rating":0.001,"quadkey":"122313323032112313","location":{"lat":11.5911103,"lng":43.142875},"bounding_box":null,"name":"Tennis","name_suffix":"Gibuti, Gibuti","url":"https://travel.sygic.com/go/poi:7582686","duration":7200,"marker":"sports:tennis","categories":["doing_sports"],"parent_ids":["city:1493","region:60346","country:145","continent:2"],"perex":null,"customer_rating":null,"star_rating":null,"star_rating_unofficial":null,"thumbnail_url":null},{"id":"poi:7584471","level":"poi","rating":0.001,"quadkey":"122313323032300122","location":{"lat":11.5609511,"lng":43.1170322},"bounding_box":null,"name":"Post Office","name_suffix":"Gibuti, Gibuti","url":"https://travel.sygic.com/go/poi:7584471","duration":3600,"marker":"other:post:office","categories":[],"parent_ids":["city:1773797","city:1493","region:60346","country:145","continent:2"],"perex":null,"customer_rating":null,"star_rating":null,"star_rating_unofficial":null,"thumbnail_url":null},{"id":"poi:9158864","level":"poi","rating":0.001,"quadkey":"122313323032111111","location":{"lat":11.6088334,"lng":43.1538276},"bounding_box":null,"name":"Peltier General Hospital","name_suffix":"Gibuti, Gibuti","url":"https://travel.sygic.com/go/poi:9158864","duration":3600,"marker":"other:doctor:hospital","categories":[],"parent_ids":["city:1493","region:60346","country:145","continent:2"],"perex":null,"customer_rating":null,"star_rating":null,"star_rating_unofficial":null,"thumbnail_url":null},{"id":"poi:9647437","level":"poi","rating":0.001,"quadkey":"122313323032113023","location":{"lat":11.5939908,"lng":43.1452876},"bounding_box":null,"name":"Point burger","name_suffix":"Gibuti, Gibuti","url":"https://travel.sygic.com/go/poi:9647437","duration":900,"marker":"eating:restaurant:fastfood","categories":["eating"],"parent_ids":["city:1493","region:60346","country:145","continent:2"],"perex":null,"customer_rating":null,"star_rating":null,"star_rating_unofficial":null,"thumbnail_url":null},{"id":"poi:9392704","level":"poi","rating":0.001,"quadkey":"122313323032113023","location":{"lat":11.5939374,"lng":43.1458604},"bounding_box":null,"name":"Hotel Ali Sabieh fndq ly sbyt","name_suffix":"Gibuti, Gibuti","url":"https://travel.sygic.com/go/poi:9392704","duration":3600,"marker":"sleeping:hotel:motel","categories":["sleeping"],"parent_ids":["city:1493","region:60346","country:145","continent:2"],"perex":null,"customer_rating":null,"star_rating":null,"star_rating_unofficial":null,"thumbnail_url":null},{"id":"poi:10857672","level":"poi","rating":0.001,"quadkey":"122313323032331110","location":{"lat":11.5436252,"lng":43.1526097},"bounding_box":null,"name":"11 Degrees North","name_suffix":"Djibouti, Gibuti","url":"https://travel.sygic.com/go/poi:10857672","duration":7200,"marker":"going_out:bar","categories":["going_out"],"parent_ids":["region:60346","country:145","continent:2"],"perex":null,"customer_rating":null,"star_rating":null,"star_rating_unofficial":null,"thumbnail_url":null},{"id":"poi:10857684","level":"poi","rating":0.001,"quadkey":"122313323032331103","location":{"lat":11.5431785,"lng":43.1506302},"bounding_box":null,"name":"Laundry","name_suffix":"Djibouti, Gibuti","url":"https://travel.sygic.com/go/poi:10857684","duration":3600,"marker":"other:laundry","categories":["shopping"],"parent_ids":["region:60346","country:145","continent:2"],"perex":null,"customer_rating":null,"star_rating":null,"star_rating_unofficial":null,"thumbnail_url":null},{"id":"poi:10860479","level":"poi","rating":0.001,"quadkey":"122313323032311311","location":{"lat":11.5599995,"lng":43.1542564},"bounding_box":null,"name":"BOA - Agence de l'Aviation","name_suffix":"Gibuti, Gibuti","url":"https://travel.sygic.com/go/poi:10860479","duration":900,"marker":"other:bank","categories":[],"parent_ids":["city:1493","region:60346","country:145","continent:2"],"perex":null,"customer_rating":null,"star_rating":null,"star_rating_unofficial":null,"thumbnail_url":null},{"id":"poi:10864608","level":"poi","rating":0.001,"quadkey":"122313323032331013","location":{"lat":11.5427476,"lng":43.1486669},"bounding_box":null,"name":"Enduring Freedom Chapel","name_suffix":"Djibouti, Gibuti","url":"https://travel.sygic.com/go/poi:10864608","duration":1800,"marker":"other:place_of_worship","categories":[],"parent_ids":["region:60346","country:145","continent:2"],"perex":null,"customer_rating":null,"star_rating":null,"star_rating_unofficial":null,"thumbnail_url":null},{"id":"poi:9629627","level":"poi","rating":0.001,"quadkey":"122313323032113030","location":{"lat":11.5954485,"lng":43.1473859},"bounding_box":null,"name":"CAC banque kak bnk","name_suffix":"Gibuti, Gibuti","url":"https://travel.sygic.com/go/poi:9629627","duration":900,"marker":"other:bank","categories":[],"parent_ids":["city:1493","region:60346","country:145","continent:2"],"perex":null,"customer_rating":null,"star_rating":null,"star_rating_unofficial":null,"thumbnail_url":null},{"id":"poi:12939698","level":"poi","rating":0.001,"quadkey":"122313323032300023","location":{"lat":11.5616062,"lng":43.1124188},"bounding_box":null,"name":"Bank","name_suffix":"Gibuti, Gibuti","url":"https://travel.sygic.com/go/poi:12939698","duration":900,"marker":"other:bank","categories":[],"parent_ids":["city:1773797","city:1493","region:60346","country:145","continent:2"],"perex":null,"customer_rating":null,"star_rating":null,"star_rating_unofficial":null,"thumbnail_url":null},{"id":"poi:8438189","level":"poi","rating":0.001,"quadkey":"122313320023020300","location":{"lat":12.2698774,"lng":42.2815979},"bounding_box":null,"name":"Volcano","name_suffix":"Tadjourah Region, Gibuti","url":"https://travel.sygic.com/go/poi:8438189","duration":3600,"marker":"hiking:volcano","categories":["hiking"],"parent_ids":["region:61647","region:59260","country:145","continent:2"],"perex":null,"customer_rating":null,"star_rating":null,"star_rating_unofficial":null,"thumbnail_url":null},{"id":"poi:9631660","level":"poi","rating":0.001,"quadkey":"122313323032113211","location":{"lat":11.5928833,"lng":43.1475642},"bounding_box":null,"name":"Chez Mahad fy mhad","name_suffix":"Gibuti, Gibuti","url":"https://travel.sygic.com/go/poi:9631660","duration":3600,"marker":"shopping:beverages","categories":["shopping"],"parent_ids":["city:1493","region:60346","country:145","continent:2"],"perex":null,"customer_rating":null,"star_rating":null,"star_rating_unofficial":null,"thumbnail_url":null},{"id":"poi:10876203","level":"poi","rating":0.001,"quadkey":"122313322312102032","location":{"lat":11.4211463,"lng":42.7622245},"bounding_box":null,"name":"Police Station","name_suffix":"Arta, Gibuti","url":"https://travel.sygic.com/go/poi:10876203","duration":3600,"marker":"other:emergency:police","categories":[],"parent_ids":["region:62575","country:145","continent:2"],"perex":null,"customer_rating":null,"star_rating":null,"star_rating_unofficial":null,"thumbnail_url":null},{"id":"poi:10520684","level":"poi","rating":0.001,"quadkey":"122313323032113120","location":{"lat":11.5945471,"lng":43.1500818},"bounding_box":null,"name":"Lychee de Djibouti mdrst jybwty althanwyt","name_suffix":"Gibuti, Gibuti","url":"https://travel.sygic.com/go/poi:10520684","duration":900,"marker":"sightseeing:town_hall:city_hall","categories":[],"parent_ids":["city:1493","region:60346","country:145","continent:2"],"perex":null,"customer_rating":null,"star_rating":null,"star_rating_unofficial":null,"thumbnail_url":null},{"id":"poi:5480397","level":"poi","rating":0.001,"quadkey":"122313323032110213","location":{"lat":11.6011952,"lng":43.1371719},"bounding_box":null,"name":"Pier","name_suffix":"Gibuti, Gibuti","url":"https://travel.sygic.com/go/poi:5480397","duration":900,"marker":"other:pier","categories":[],"parent_ids":["city:1493","region:60346","country:145","continent:2"],"perex":null,"customer_rating":null,"star_rating":null,"star_rating_unofficial":null,"thumbnail_url":null},{"id":"poi:6573073","level":"poi","rating":0.001,"quadkey":"122313323013302203","location":{"lat":11.7195286,"lng":43.2009809},"bounding_box":null,"name":"Beach","name_suffix":"Gibuti","url":"https://travel.sygic.com/go/poi:6573073","duration":14400,"marker":"relaxing:beach","categories":["relaxing"],"parent_ids":["country:145","continent:2"],"perex":null,"customer_rating":null,"star_rating":null,"star_rating_unofficial":null,"thumbnail_url":null},{"id":"poi:6574722","level":"poi","rating":0.001,"quadkey":"122331100101131323","location":{"lat":11.1469562,"lng":42.7115816},"bounding_box":null,"name":"Msjd","name_suffix":"Ali Sabieh, Gibuti","url":"https://travel.sygic.com/go/poi:6574722","duration":1800,"marker":"other:place_of_worship","categories":[],"parent_ids":["city:431340","region:60201","country:145","continent:2"],"perex":null,"customer_rating":null,"star_rating":null,"star_rating_unofficial":null,"thumbnail_url":null},{"id":"poi:6858070","level":"poi","rating":0.001,"quadkey":"122313323032030312","location":{"lat":11.5805187,"lng":43.0972705},"bounding_box":null,"name":"Marina","name_suffix":"Djibouti, Gibuti","url":"https://travel.sygic.com/go/poi:6858070","duration":1800,"marker":"sightseeing:marina","categories":[],"parent_ids":["region:60346","country:145","continent:2"],"perex":null,"customer_rating":null,"star_rating":null,"star_rating_unofficial":null,"thumbnail_url":null},{"id":"poi:6852384","level":"poi","rating":0.001,"quadkey":"122313323032111132","location":{"lat":11.6041416,"lng":43.1523804},"bounding_box":null,"name":"Place de la Gare saht almhtt","name_suffix":"Gibuti, Gibuti","url":"https://travel.sygic.com/go/poi:6852384","duration":14400,"marker":"relaxing:park","categories":["relaxing"],"parent_ids":["city:1493","region:60346","country:145","continent:2"],"perex":null,"customer_rating":null,"star_rating":null,"star_rating_unofficial":null,"thumbnail_url":null},{"id":"poi:6561772","level":"poi","rating":0.001,"quadkey":"122313323013210323","location":{"lat":11.7276005,"lng":43.1837863},"bounding_box":null,"name":"Beach","name_suffix":"Gibuti","url":"https://travel.sygic.com/go/poi:6561772","duration":14400,"marker":"relaxing:beach","categories":["relaxing"],"parent_ids":["country:145","continent:2"],"perex":null,"customer_rating":null,"star_rating":null,"star_rating_unofficial":null,"thumbnail_url":null},{"id":"poi:6561996","level":"poi","rating":0.001,"quadkey":"122313323013220102","location":{"lat":11.715083,"lng":43.15984},"bounding_box":null,"name":"Beach","name_suffix":"Gibuti","url":"https://travel.sygic.com/go/poi:6561996","duration":14400,"marker":"relaxing:beach","categories":["relaxing"],"parent_ids":["country:145","continent:2"],"perex":null,"customer_rating":null,"star_rating":null,"star_rating_unofficial":null,"thumbnail_url":null},{"id":"poi:6585897","level":"poi","rating":0.001,"quadkey":"122313321320323002","location":{"lat":11.9617053,"lng":43.2983141},"bounding_box":null,"name":"Pier","name_suffix":"Obock, Gibuti","url":"https://travel.sygic.com/go/poi:6585897","duration":900,"marker":"other:pier","categories":[],"parent_ids":["city:432020","region:61695","region:60343","country:145","continent:2"],"perex":null,"customer_rating":null,"star_rating":null,"star_rating_unofficial":null,"thumbnail_url":null},{"id":"poi:7422949","level":"poi","rating":0.001,"quadkey":"122313323033201013","location":{"lat":11.5635493,"lng":43.1694748},"bounding_box":null,"name":"Swimming Pool","name_suffix":"Gibuti, Gibuti","url":"https://travel.sygic.com/go/poi:7422949","duration":7200,"marker":"sports:pool:swimming","categories":["doing_sports"],"parent_ids":["city:1493","region:60346","country:145","continent:2"],"perex":null,"customer_rating":null,"star_rating":null,"star_rating_unofficial":null,"thumbnail_url":null},{"id":"poi:6489453","level":"poi","rating":0.001,"quadkey":"122313323032132010","location":{"lat":11.5763373,"lng":43.1351555},"bounding_box":null,"name":"Mosque","name_suffix":"Gibuti, Gibuti","url":"https://travel.sygic.com/go/poi:6489453","duration":1800,"marker":"other:place_of_worship:mosque","categories":["sightseeing"],"parent_ids":["city:1493","region:60346","country:145","continent:2"],"perex":null,"customer_rating":null,"star_rating":null,"star_rating_unofficial":null,"thumbnail_url":null},{"id":"poi:6340173","level":"poi","rating":0.001,"quadkey":"122313323032113220","location":{"lat":11.5893272,"lng":43.1445793},"bounding_box":null,"name":"Centre commercial d'Einguella mrkz tjary aynkwla","name_suffix":"Gibuti, Gibuti","url":"https://travel.sygic.com/go/poi:6340173","duration":5400,"marker":"shopping:centre:mall","categories":["shopping"],"parent_ids":["city:1493","region:60346","country:145","continent:2"],"perex":null,"customer_rating":null,"star_rating":null,"star_rating_unofficial":null,"thumbnail_url":null},{"id":"poi:7540482","level":"poi","rating":0.001,"quadkey":"122313323032113030","location":{"lat":11.5944694,"lng":43.1468733},"bounding_box":null,"name":"Hotel Residence de l'Europe fndq alaqamt mn awrwba","name_suffix":"Gibuti, Gibuti","url":"https://travel.sygic.com/go/poi:7540482","duration":3600,"marker":"sleeping:hotel","categories":["sleeping"],"parent_ids":["city:1493","region:60346","country:145","continent:2"],"perex":null,"customer_rating":null,"star_rating":null,"star_rating_unofficial":null,"thumbnail_url":null},{"id":"poi:7543808","level":"poi","rating":0.001,"quadkey":"122313323032113030","location":{"lat":11.5945164,"lng":43.1466742},"bounding_box":null,"name":"Hotel Menelik fndq mnlyk","name_suffix":"Gibuti, Gibuti","url":"https://travel.sygic.com/go/poi:7543808","duration":3600,"marker":"sleeping:hotel","categories":["sleeping"],"parent_ids":["city:1493","region:60346","country:145","continent:2"],"perex":null,"customer_rating":null,"star_rating":null,"star_rating_unofficial":null,"thumbnail_url":null},{"id":"poi:7702783","level":"poi","rating":0.001,"quadkey":"122313323032302231","location":{"lat":11.547261,"lng":43.1154878},"bounding_box":null,"name":"Soccer Field","name_suffix":"Balbala, Gibuti","url":"https://travel.sygic.com/go/poi:7702783","duration":7200,"marker":"sports:field:soccer","categories":["doing_sports"],"parent_ids":["city:1773797","region:60346","country:145","continent:2"],"perex":null,"customer_rating":null,"star_rating":null,"star_rating_unofficial":null,"thumbnail_url":null},{"id":"poi:9637732","level":"poi","rating":0.001,"quadkey":"122313323032113032","location":{"lat":11.5934511,"lng":43.1466016},"bounding_box":null,"name":"Cafeteria Bienvenue mtm mrhba bkm","name_suffix":"Gibuti, Gibuti","url":"https://travel.sygic.com/go/poi:9637732","duration":3600,"marker":"eating:restaurant","categories":["eating"],"parent_ids":["city:1493","region:60346","country:145","continent:2"],"perex":null,"customer_rating":null,"star_rating":null,"star_rating_unofficial":null,"thumbnail_url":null},{"id":"poi:7524368","level":"poi","rating":0.001,"quadkey":"122313323032113301","location":{"lat":11.5929785,"lng":43.1514165},"bounding_box":null,"name":"Basketball","name_suffix":"Gibuti, Gibuti","url":"https://travel.sygic.com/go/poi:7524368","duration":7200,"marker":"sports:field:basketball","categories":["doing_sports"],"parent_ids":["city:1493","region:60346","country:145","continent:2"],"perex":null,"customer_rating":null,"star_rating":null,"star_rating_unofficial":null,"thumbnail_url":null},{"id":"poi:8442392","level":"poi","rating":0.001,"quadkey":"122313322030122103","location":{"lat":11.6603447,"lng":42.4141699},"bounding_box":null,"name":"Volcano","name_suffix":"Tadjourah Region, Gibuti","url":"https://travel.sygic.com/go/poi:8442392","duration":3600,"marker":"hiking:volcano","categories":["hiking"],"parent_ids":["region:61754","region:59260","country:145","continent:2"],"perex":null,"customer_rating":null,"star_rating":null,"star_rating_unofficial":null,"thumbnail_url":null},{"id":"poi:7433701","level":"poi","rating":0.001,"quadkey":"122313323032301232","location":{"lat":11.5564558,"lng":43.124202},"bounding_box":null,"name":"Red Cross Djibout","name_suffix":"Gibuti, Gibuti","url":"https://travel.sygic.com/go/poi:7433701","duration":3600,"marker":"other:doctor:hospital","categories":[],"parent_ids":["city:1773797","city:1493","region:60346","country:145","continent:2"],"perex":null,"customer_rating":null,"star_rating":null,"star_rating_unofficial":null,"thumbnail_url":null},{"id":"poi:13530430","level":"poi","rating":0.001,"quadkey":"122313323030333010","location":{"lat":11.6192242,"lng":43.1469469},"bounding_box":null,"name":"Treasure Bay Casino","name_suffix":"Gibuti, Gibuti","url":"https://travel.sygic.com/go/poi:13530430","duration":3600,"marker":"going_out:casino","categories":["going_out"],"parent_ids":["city:1493","region:60346","country:145","continent:2"],"perex":null,"customer_rating":null,"star_rating":null,"star_rating_unofficial":null,"thumbnail_url":null},{"id":"poi:12699038","level":"poi","rating":0.001,"quadkey":"122313323032113211","location":{"lat":11.5929113,"lng":43.1481921},"bounding_box":null,"name":"Cafe des beaux arts mqhy alfnwn aljmylt","name_suffix":"Gibuti, Gibuti","url":"https://travel.sygic.com/go/poi:12699038","duration":3600,"marker":"eating:cafe","categories":["eating"],"parent_ids":["city:1493","region:60346","country:145","continent:2"],"perex":null,"customer_rating":null,"star_rating":null,"star_rating_unofficial":null,"thumbnail_url":null},{"id":"poi:19984656","level":"poi","rating":0.001,"quadkey":"122313323033200111","location":{"lat":11.565605,"lng":43.1646824},"bounding_box":null,"name":"Pizzaiolo Haramous","name_suffix":"Gibuti, Gibuti","url":"https://travel.sygic.com/go/poi:19984656","duration":3600,"marker":"default","categories":[],"parent_ids":["city:1493","region:60346","country:145","continent:2"],"perex":null,"customer_rating":null,"star_rating":null,"star_rating_unofficial":null,"thumbnail_url":null},{"id":"poi:6577411","level":"poi","rating":0.001,"quadkey":"122313321320323002","location":{"lat":11.9626557,"lng":43.2971966},"bounding_box":null,"name":"Pier","name_suffix":"Obock, Gibuti","url":"https://travel.sygic.com/go/poi:6577411","duration":900,"marker":"other:pier","categories":[],"parent_ids":["city:432020","region:61695","region:60343","country:145","continent:2"],"perex":null,"customer_rating":null,"star_rating":null,"star_rating_unofficial":null,"thumbnail_url":null},{"id":"poi:6843946","level":"poi","rating":0.001,"quadkey":"122313321321212311","location":{"lat":11.9799178,"lng":43.3621191},"bounding_box":null,"name":"Observation Tower","name_suffix":"Ras Bir, Gibuti","url":"https://travel.sygic.com/go/poi:6843946","duration":1800,"marker":"sightseeing:tower:lookout:observation","categories":[],"parent_ids":["region:1516013","region:61695","region:60343","country:145","continent:2"],"perex":null,"customer_rating":null,"star_rating":null,"star_rating_unofficial":null,"thumbnail_url":null},{"id":"poi:6556045","level":"poi","rating":0.001,"quadkey":"122313323012331122","location":{"lat":11.7117452,"lng":43.1496517},"bounding_box":null,"name":"Beach","name_suffix":"Gibuti","url":"https://travel.sygic.com/go/poi:6556045","duration":14400,"marker":"relaxing:beach","categories":["relaxing"],"parent_ids":["country:145","continent:2"],"perex":null,"customer_rating":null,"star_rating":null,"star_rating_unofficial":null,"thumbnail_url":null},{"id":"poi:6556059","level":"poi","rating":0.001,"quadkey":"122313323013301212","location":{"lat":11.7307713,"lng":43.2126687},"bounding_box":null,"name":"Pier","name_suffix":"Gibuti","url":"https://travel.sygic.com/go/poi:6556059","duration":900,"marker":"other:pier","categories":[],"parent_ids":["country:145","continent:2"],"perex":null,"customer_rating":null,"star_rating":null,"star_rating_unofficial":null,"thumbnail_url":null},{"id":"poi:6277788","level":"poi","rating":0.001,"quadkey":"122313323033220002","location":{"lat":11.5423156,"lng":43.1547296},"bounding_box":null,"name":"Soccer Field","name_suffix":"Djibouti, Gibuti","url":"https://travel.sygic.com/go/poi:6277788","duration":7200,"marker":"sports:field:soccer","categories":["doing_sports"],"parent_ids":["region:60346","country:145","continent:2"],"perex":null,"customer_rating":null,"star_rating":null,"star_rating_unofficial":null,"thumbnail_url":null},{"id":"poi:18770113","level":"poi","rating":0.001,"quadkey":"122313323032001201","location":{"lat":11.6029205,"lng":43.0798035},"bounding_box":null,"name":"Doraleh Oil Terminal","name_suffix":"Gibuti","url":"https://travel.sygic.com/go/poi:18770113","duration":900,"marker":"other:pier","categories":[],"parent_ids":["country:145","continent:2"],"perex":null,"customer_rating":null,"star_rating":null,"star_rating_unofficial":null,"thumbnail_url":null},{"id":"poi:18771060","level":"poi","rating":0.001,"quadkey":"122313323002011002","location":{"lat":11.779408,"lng":42.9245364},"bounding_box":null,"name":"Les Sables Blancs alrmal albyda","name_suffix":"Tadjourah Region, Gibuti","url":"https://travel.sygic.com/go/poi:18771060","duration":14400,"marker":"relaxing:beach","categories":["relaxing"],"parent_ids":["region:61757","region:59260","country:145","continent:2"],"perex":null,"customer_rating":null,"star_rating":null,"star_rating_unofficial":null,"thumbnail_url":null},{"id":"poi:18776651","level":"poi","rating":0.001,"quadkey":"122313323023131011","location":{"lat":11.5874559,"lng":43.0600234},"bounding_box":null,"name":"Beach","name_suffix":"Djibouti, Gibuti","url":"https://travel.sygic.com/go/poi:18776651","duration":14400,"marker":"relaxing:beach","categories":["relaxing"],"parent_ids":["region:60346","country:145","continent:2"],"perex":null,"customer_rating":null,"star_rating":null,"star_rating_unofficial":null,"thumbnail_url":null},{"id":"poi:24745016","level":"poi","rating":0.001,"quadkey":"122313323032300011","location":{"lat":11.5648403,"lng":43.1156717},"bounding_box":null,"name":"Mosqué safa","name_suffix":"Gibuti, Gibuti","url":"https://travel.sygic.com/go/poi:24745016","duration":1800,"marker":"other:place_of_worship","categories":[],"parent_ids":["city:1773797","city:1493","region:60346","country:145","continent:2"],"perex":null,"customer_rating":null,"star_rating":null,"star_rating_unofficial":null,"thumbnail_url":null},{"id":"poi:24717736","level":"poi","rating":0.001,"quadkey":"122313323032211231","location":{"lat":11.5572605,"lng":43.1037847},"bounding_box":null,"name":"boutique","name_suffix":"Balbala, Gibuti","url":"https://travel.sygic.com/go/poi:24717736","duration":5400,"marker":"shopping:centre:mall","categories":["shopping"],"parent_ids":["city:1773797","region:60346","country:145","continent:2"],"perex":null,"customer_rating":null,"star_rating":null,"star_rating_unofficial":null,"thumbnail_url":null},{"id":"poi:24717914","level":"poi","rating":0.001,"quadkey":"122313323032212003","location":{"lat":11.5527209,"lng":43.0898989},"bounding_box":null,"name":"Marche de FABTACH","name_suffix":"Djibouti, Gibuti","url":"https://travel.sygic.com/go/poi:24717914","duration":1800,"marker":"shopping:market","categories":["shopping"],"parent_ids":["region:60346","country:145","continent:2"],"perex":null,"customer_rating":null,"star_rating":null,"star_rating_unofficial":null,"thumbnail_url":null},{"id":"poi:24718568","level":"poi","rating":0.001,"quadkey":"122313323032211023","location":{"lat":11.5620746,"lng":43.1013366},"bounding_box":null,"name":"Beverages Shop","name_suffix":"Balbala, Gibuti","url":"https://travel.sygic.com/go/poi:24718568","duration":3600,"marker":"shopping:beverages","categories":["shopping"],"parent_ids":["city:1773797","region:60346","country:145","continent:2"],"perex":null,"customer_rating":null,"star_rating":null,"star_rating_unofficial":null,"thumbnail_url":null},{"id":"poi:24718571","level":"poi","rating":0.001,"quadkey":"122313323032211023","location":{"lat":11.5620021,"lng":43.1019197},"bounding_box":null,"name":"Boutique","name_suffix":"Balbala, Gibuti","url":"https://travel.sygic.com/go/poi:24718571","duration":3600,"marker":"shopping:clothes:boutique","categories":["shopping"],"parent_ids":["city:1773797","region:60346","country:145","continent:2"],"perex":null,"customer_rating":null,"star_rating":null,"star_rating_unofficial":null,"thumbnail_url":null},{"id":"poi:24718733","level":"poi","rating":0.001,"quadkey":"122313323032210313","location":{"lat":11.5587557,"lng":43.098991},"bounding_box":null,"name":"Beverages Shop","name_suffix":"Balbala, Gibuti","url":"https://travel.sygic.com/go/poi:24718733","duration":3600,"marker":"shopping:beverages","categories":["shopping"],"parent_ids":["city:1773797","region:60346","country:145","continent:2"],"perex":null,"customer_rating":null,"star_rating":null,"star_rating_unofficial":null,"thumbnail_url":null},{"id":"poi:24719539","level":"poi","rating":0.001,"quadkey":"122313323032211331","location":{"lat":11.5570441,"lng":43.1098168},"bounding_box":null,"name":"Mosquée Ali Dherer","name_suffix":"Gibuti, Gibuti","url":"https://travel.sygic.com/go/poi:24719539","duration":1800,"marker":"other:place_of_worship","categories":[],"parent_ids":["city:1773797","city:1493","region:60346","country:145","continent:2"],"perex":null,"customer_rating":null,"star_rating":null,"star_rating_unofficial":null,"thumbnail_url":null},{"id":"poi:24832854","level":"poi","rating":0.001,"quadkey":"122313323032030123","location":{"lat":11.5826147,"lng":43.0960906},"bounding_box":null,"name":"Place of Worship","name_suffix":"Gibuti","url":"https://travel.sygic.com/go/poi:24832854","duration":1800,"marker":"other:place_of_worship","categories":[],"parent_ids":["country:145","continent:2"],"perex":null,"customer_rating":null,"star_rating":null,"star_rating_unofficial":null,"thumbnail_url":null},{"id":"poi:24770970","level":"poi","rating":0.001,"quadkey":"122313323032311032","location":{"lat":11.5607948,"lng":43.1462006},"bounding_box":null,"name":"Urban Kitchen","name_suffix":"Gibuti, Gibuti","url":"https://travel.sygic.com/go/poi:24770970","duration":3600,"marker":"eating:restaurant:burgers","categories":["eating"],"parent_ids":["city:1493","region:60346","country:145","continent:2"],"perex":null,"customer_rating":null,"star_rating":null,"star_rating_unofficial":null,"thumbnail_url":null},{"id":"poi:24723658","level":"poi","rating":0.001,"quadkey":"122313323032213132","location":{"lat":11.5502166,"lng":43.1085917},"bounding_box":null,"name":"Pharmacy","name_suffix":"Balbala, Gibuti","url":"https://travel.sygic.com/go/poi:24723658","duration":900,"marker":"other:pharmacy","categories":["shopping"],"parent_ids":["city:1773797","region:60346","country:145","continent:2"],"perex":null,"customer_rating":null,"star_rating":null,"star_rating_unofficial":null,"thumbnail_url":null},{"id":"poi:24726398","level":"poi","rating":0.001,"quadkey":"122313323032300011","location":{"lat":11.5648463,"lng":43.1156597},"bounding_box":null,"name":"Mosquée Safa","name_suffix":"Gibuti, Gibuti","url":"https://travel.sygic.com/go/poi:24726398","duration":1800,"marker":"other:place_of_worship:mosque","categories":["sightseeing"],"parent_ids":["city:1773797","city:1493","region:60346","country:145","continent:2"],"perex":null,"customer_rating":null,"star_rating":null,"star_rating_unofficial":null,"thumbnail_url":null},{"id":"poi:24785741","level":"poi","rating":0.001,"quadkey":"122313322111323322","location":{"lat":11.7824407,"lng":42.8641476},"bounding_box":null,"name":"sans","name_suffix":"Tadjourah Region, Gibuti","url":"https://travel.sygic.com/go/poi:24785741","duration":3600,"marker":"default","categories":[],"parent_ids":["region:61757","region:59260","country:145","continent:2"],"perex":null,"customer_rating":null,"star_rating":null,"star_rating_unofficial":null,"thumbnail_url":null},{"id":"poi:24785807","level":"poi","rating":0.001,"quadkey":"122313322111333122","location":{"lat":11.7869602,"lng":42.886433},"bounding_box":null,"name":"Service hospitalier Tadjourah","name_suffix":"Tadjoura, Gibuti","url":"https://travel.sygic.com/go/poi:24785807","duration":3600,"marker":"other:doctor:hospital","categories":[],"parent_ids":["city:432769","region:61757","region:59260","country:145","continent:2"],"perex":null,"customer_rating":null,"star_rating":null,"star_rating_unofficial":null,"thumbnail_url":null},{"id":"poi:9619012","level":"poi","rating":0.001,"quadkey":"122313323032113021","location":{"lat":11.5950656,"lng":43.1459136},"bounding_box":null,"name":"Chez Marco fy mkan markw","name_suffix":"Gibuti, Gibuti","url":"https://travel.sygic.com/go/poi:9619012","duration":3600,"marker":"eating:restaurant","categories":["eating"],"parent_ids":["city:1493","region:60346","country:145","continent:2"],"perex":null,"customer_rating":null,"star_rating":null,"star_rating_unofficial":null,"thumbnail_url":null},{"id":"poi:19144708","level":"poi","rating":0.001,"quadkey":"122313323032331011","location":{"lat":11.5438662,"lng":43.1482354},"bounding_box":null,"name":"Air Ops","name_suffix":"Djibouti, Gibuti","url":"https://travel.sygic.com/go/poi:19144708","duration":3600,"marker":"sightseeing","categories":["sightseeing"],"parent_ids":["region:60346","country:145","continent:2"],"perex":null,"customer_rating":null,"star_rating":null,"star_rating_unofficial":null,"thumbnail_url":null},{"id":"poi:13115381","level":"poi","rating":0.001,"quadkey":"122313323220212002","location":{"lat":11.2947217,"lng":42.9138084},"bounding_box":null,"name":"Toilets","name_suffix":"Holl-Holl, Gibuti","url":"https://travel.sygic.com/go/poi:13115381","duration":300,"marker":"other:toilets","categories":[],"parent_ids":["city:793280","region:60201","country:145","continent:2"],"perex":null,"customer_rating":null,"star_rating":null,"star_rating_unofficial":null,"thumbnail_url":null},{"id":"poi:15467598","level":"poi","rating":0.001,"quadkey":"122313323030333101","location":{"lat":11.6189598,"lng":43.1503149},"bounding_box":null,"name":"Tennis","name_suffix":"Gibuti, Gibuti","url":"https://travel.sygic.com/go/poi:15467598","duration":7200,"marker":"sports:tennis","categories":["doing_sports"],"parent_ids":["city:1493","region:60346","country:145","continent:2"],"perex":null,"customer_rating":null,"star_rating":null,"star_rating_unofficial":null,"thumbnail_url":null},{"id":"poi:16662425","level":"poi","rating":0.001,"quadkey":"122313323032113030","location":{"lat":11.5954313,"lng":43.14739},"bounding_box":null,"name":"CAC International Bank","name_suffix":"Gibuti, Gibuti","url":"https://travel.sygic.com/go/poi:16662425","duration":900,"marker":"other:bank","categories":[],"parent_ids":["city:1493","region:60346","country:145","continent:2"],"perex":null,"customer_rating":null,"star_rating":null,"star_rating_unofficial":null,"thumbnail_url":null},{"id":"poi:16664996","level":"poi","rating":0.001,"quadkey":"122313323032123311","location":{"lat":11.5713887,"lng":43.1323068},"bounding_box":null,"name":"Hopital Militaire Soudanais mstshfy alskry alswdany","name_suffix":"Gibuti, Gibuti","url":"https://travel.sygic.com/go/poi:16664996","duration":3600,"marker":"other:doctor:hospital","categories":[],"parent_ids":["city:1493","region:60346","country:145","continent:2"],"perex":null,"customer_rating":null,"star_rating":null,"star_rating_unofficial":null,"thumbnail_url":null},{"id":"poi:10521456","level":"poi","rating":0.001,"quadkey":"122313323030333102","location":{"lat":11.6181709,"lng":43.1488423},"bounding_box":null,"name":"Fndq","name_suffix":"Gibuti, Gibuti","url":"https://travel.sygic.com/go/poi:10521456","duration":3600,"marker":"sleeping:hotel","categories":["sleeping"],"parent_ids":["city:1493","region:60346","country:145","continent:2"],"perex":null,"customer_rating":null,"star_rating":null,"star_rating_unofficial":null,"thumbnail_url":null},{"id":"poi:10526641","level":"poi","rating":0.001,"quadkey":"122313323033022122","location":{"lat":11.5717371,"lng":43.1603856},"bounding_box":null,"name":"Casino","name_suffix":"Gibuti, Gibuti","url":"https://travel.sygic.com/go/poi:10526641","duration":3600,"marker":"shopping:supermarket","categories":["shopping"],"parent_ids":["city:1493","region:60346","country:145","continent:2"],"perex":null,"customer_rating":null,"star_rating":null,"star_rating_unofficial":null,"thumbnail_url":null},{"id":"poi:10530983","level":"poi","rating":0.001,"quadkey":"122313323032133130","location":{"lat":11.5735578,"lng":43.1516497},"bounding_box":null,"name":"Dacia Marill dasya maryl","name_suffix":"Gibuti, Gibuti","url":"https://travel.sygic.com/go/poi:10530983","duration":3600,"marker":"shopping:cars","categories":["shopping"],"parent_ids":["city:1493","region:60346","country:145","continent:2"],"perex":null,"customer_rating":null,"star_rating":null,"star_rating_unofficial":null,"thumbnail_url":null},{"id":"poi:12700677","level":"poi","rating":0.001,"quadkey":"122313323032113232","location":{"lat":11.5885951,"lng":43.1471794},"bounding_box":null,"name":"Quincaillerie Bassetco basytkw mtjr alajhzt","name_suffix":"Gibuti, Gibuti","url":"https://travel.sygic.com/go/poi:12700677","duration":3600,"marker":"shopping:diy:hardware","categories":["shopping"],"parent_ids":["city:1493","region:60346","country:145","continent:2"],"perex":null,"customer_rating":null,"star_rating":null,"star_rating_unofficial":null,"thumbnail_url":null},{"id":"poi:9629642","level":"poi","rating":0.001,"quadkey":"122313323032113030","location":{"lat":11.5950549,"lng":43.1469754},"bounding_box":null,"name":"La Chaumiere alshwmyr","name_suffix":"Gibuti, Gibuti","url":"https://travel.sygic.com/go/poi:9629642","duration":3600,"marker":"eating:restaurant","categories":["eating"],"parent_ids":["city:1493","region:60346","country:145","continent:2"],"perex":null,"customer_rating":null,"star_rating":null,"star_rating_unofficial":null,"thumbnail_url":null},{"id":"poi:6846960","level":"poi","rating":0.001,"quadkey":"122313323032111330","location":{"lat":11.5998397,"lng":43.1522257},"bounding_box":null,"name":"Plage de la Siesta shaty alqylwlt","name_suffix":"Gibuti, Gibuti","url":"https://travel.sygic.com/go/poi:6846960","duration":14400,"marker":"relaxing:beach","categories":["relaxing"],"parent_ids":["city:1493","region:60346","country:145","continent:2"],"perex":null,"customer_rating":null,"star_rating":null,"star_rating_unofficial":null,"thumbnail_url":null},{"id":"poi:5396678","level":"poi","rating":0.001,"quadkey":"122313323032112313","location":{"lat":11.5914598,"lng":43.142378},"bounding_box":null,"name":"Centre Culturel Institut Francais Arthur Rimbaud almrkz althqafy almhd alfrnsy arthr rambw","name_suffix":"Gibuti, Gibuti","url":"https://travel.sygic.com/go/poi:5396678","duration":3600,"marker":"discovering:art_centre","categories":["going_out"],"parent_ids":["city:1493","region:60346","country:145","continent:2"],"perex":null,"customer_rating":null,"star_rating":null,"star_rating_unofficial":null,"thumbnail_url":null},{"id":"poi:5196455","level":"poi","rating":0.001,"quadkey":"122313323032303111","location":{"lat":11.5540832,"lng":43.1313941},"bounding_box":null,"name":"Soccer Field","name_suffix":"Balbala, Gibuti","url":"https://travel.sygic.com/go/poi:5196455","duration":7200,"marker":"sports:field:soccer","categories":["doing_sports"],"parent_ids":["city:1773797","region:60346","country:145","continent:2"],"perex":null,"customer_rating":null,"star_rating":null,"star_rating_unofficial":null,"thumbnail_url":null},{"id":"poi:7419410","level":"poi","rating":0.001,"quadkey":"122313323033201031","location":{"lat":11.5632095,"lng":43.1695898},"bounding_box":null,"name":"Swimming Pool","name_suffix":"Gibuti, Gibuti","url":"https://travel.sygic.com/go/poi:7419410","duration":7200,"marker":"sports:pool:swimming","categories":["doing_sports"],"parent_ids":["city:1493","region:60346","country:145","continent:2"],"perex":null,"customer_rating":null,"star_rating":null,"star_rating_unofficial":null,"thumbnail_url":null},{"id":"poi:7422719","level":"poi","rating":0.001,"quadkey":"122313323033201031","location":{"lat":11.562864,"lng":43.1697072},"bounding_box":null,"name":"Swimming Pool","name_suffix":"Gibuti, Gibuti","url":"https://travel.sygic.com/go/poi:7422719","duration":7200,"marker":"sports:pool:swimming","categories":["doing_sports"],"parent_ids":["city:1493","region:60346","country:145","continent:2"],"perex":null,"customer_rating":null,"star_rating":null,"star_rating_unofficial":null,"thumbnail_url":null},{"id":"poi:7422954","level":"poi","rating":0.001,"quadkey":"122313323033201030","location":{"lat":11.5633937,"lng":43.1691203},"bounding_box":null,"name":"Swimming Pool","name_suffix":"Gibuti, Gibuti","url":"https://travel.sygic.com/go/poi:7422954","duration":7200,"marker":"sports:pool:swimming","categories":["doing_sports"],"parent_ids":["city:1493","region:60346","country:145","continent:2"],"perex":null,"customer_rating":null,"star_rating":null,"star_rating_unofficial":null,"thumbnail_url":null},{"id":"poi:6568360","level":"poi","rating":0.001,"quadkey":"122331100101131033","location":{"lat":11.1527632,"lng":42.7081676},"bounding_box":null,"name":"Msjd ly sbyh","name_suffix":"Ali Sabieh, Gibuti","url":"https://travel.sygic.com/go/poi:6568360","duration":1800,"marker":"other:place_of_worship","categories":[],"parent_ids":["city:431340","region:60201","country:145","continent:2"],"perex":null,"customer_rating":null,"star_rating":null,"star_rating_unofficial":null,"thumbnail_url":null},{"id":"poi:7536487","level":"poi","rating":0.001,"quadkey":"122313323032132012","location":{"lat":11.5742848,"lng":43.1362308},"bounding_box":null,"name":"Dar Al Hanan dar alhnan","name_suffix":"Gibuti, Gibuti","url":"https://travel.sygic.com/go/poi:7536487","duration":3600,"marker":"other:doctor:hospital","categories":[],"parent_ids":["city:1493","region:60346","country:145","continent:2"],"perex":null,"customer_rating":null,"star_rating":null,"star_rating_unofficial":null,"thumbnail_url":null},{"id":"poi:7753002","level":"poi","rating":0.001,"quadkey":"122313323032033212","location":{"lat":11.5690879,"lng":43.1023469},"bounding_box":null,"name":"Place of Worship","name_suffix":"Balbala, Gibuti","url":"https://travel.sygic.com/go/poi:7753002","duration":1800,"marker":"other:place_of_worship","categories":[],"parent_ids":["city:1773797","region:60346","country:145","continent:2"],"perex":null,"customer_rating":null,"star_rating":null,"star_rating_unofficial":null,"thumbnail_url":null},{"id":"poi:7588882","level":"poi","rating":0.001,"quadkey":"122313323032103131","location":{"lat":11.5956011,"lng":43.1322953},"bounding_box":null,"name":"Pier","name_suffix":"Gibuti, Gibuti","url":"https://travel.sygic.com/go/poi:7588882","duration":900,"marker":"other:pier","categories":[],"parent_ids":["city:1493","region:60346","country:145","continent:2"],"perex":null,"customer_rating":null,"star_rating":null,"star_rating_unofficial":null,"thumbnail_url":null},{"id":"poi:6337389","level":"poi","rating":0.001,"quadkey":"122313322311103302","location":{"lat":11.5054891,"lng":42.8634718},"bounding_box":null,"name":"Soccer Field","name_suffix":"W Weya, Gibuti","url":"https://travel.sygic.com/go/poi:6337389","duration":7200,"marker":"sports:field:soccer","categories":["doing_sports"],"parent_ids":["region:871661","region:62575","country:145","continent:2"],"perex":null,"customer_rating":null,"star_rating":null,"star_rating_unofficial":null,"thumbnail_url":null},{"id":"poi:5482154","level":"poi","rating":0.001,"quadkey":"122313323032110213","location":{"lat":11.6018113,"lng":43.1369432},"bounding_box":null,"name":"Pier","name_suffix":"Gibuti, Gibuti","url":"https://travel.sygic.com/go/poi:5482154","duration":900,"marker":"other:pier","categories":[],"parent_ids":["city:1493","region:60346","country:145","continent:2"],"perex":null,"customer_rating":null,"star_rating":null,"star_rating_unofficial":null,"thumbnail_url":null},{"id":"poi:5482481","level":"poi","rating":0.001,"quadkey":"122313323032001200","location":{"lat":11.6028591,"lng":43.0785128},"bounding_box":null,"name":"Pier","name_suffix":"Gibuti","url":"https://travel.sygic.com/go/poi:5482481","duration":900,"marker":"other:pier","categories":[],"parent_ids":["country:145","continent:2"],"perex":null,"customer_rating":null,"star_rating":null,"star_rating_unofficial":null,"thumbnail_url":null},{"id":"poi:9637721","level":"poi","rating":0.001,"quadkey":"122313323032113221","location":{"lat":11.5902946,"lng":43.1450048},"bounding_box":null,"name":"BCIMR albnk altjary walsnay llbhr alahmr","name_suffix":"Gibuti, Gibuti","url":"https://travel.sygic.com/go/poi:9637721","duration":900,"marker":"other:bank","categories":[],"parent_ids":["city:1493","region:60346","country:145","continent:2"],"perex":null,"customer_rating":null,"star_rating":null,"star_rating_unofficial":null,"thumbnail_url":null},{"id":"poi:8000565","level":"poi","rating":0.001,"quadkey":"122331100111311311","location":{"lat":11.129309,"lng":42.8898683},"bounding_box":null,"name":"Hospital","name_suffix":"Ali Addé, Gibuti","url":"https://travel.sygic.com/go/poi:8000565","duration":3600,"marker":"other:doctor:hospital","categories":[],"parent_ids":["city:797467","region:60201","country:145","continent:2"],"perex":null,"customer_rating":null,"star_rating":null,"star_rating_unofficial":null,"thumbnail_url":null},{"id":"poi:10882177","level":"poi","rating":0.001,"quadkey":"122313323032131211","location":{"lat":11.5821247,"lng":43.1487804},"bounding_box":null,"name":"Msjd","name_suffix":"Gibuti, Gibuti","url":"https://travel.sygic.com/go/poi:10882177","duration":1800,"marker":"other:place_of_worship","categories":[],"parent_ids":["city:1493","region:60346","country:145","continent:2"],"perex":null,"customer_rating":null,"star_rating":null,"star_rating_unofficial":null,"thumbnail_url":null},{"id":"poi:20351334","level":"poi","rating":0.001,"quadkey":"122313323013203320","location":{"lat":11.7191937,"lng":43.1718877},"bounding_box":null,"name":"Moucha Islands","name_suffix":"Gibuti","url":"https://travel.sygic.com/go/poi:20351334","duration":7200,"marker":"sports:water:diving:scuba","categories":["doing_sports"],"parent_ids":["country:145","continent:2"],"perex":null,"customer_rating":null,"star_rating":null,"star_rating_unofficial":null,"thumbnail_url":null},{"id":"poi:21743886","level":"poi","rating":0.001,"quadkey":"122313323032133313","location":{"lat":11.569031,"lng":43.1531646},"bounding_box":null,"name":"Masdjid Du Prince Salman msjd alamyr slman","name_suffix":"Gibuti, Gibuti","url":"https://travel.sygic.com/go/poi:21743886","duration":1800,"marker":"other:place_of_worship","categories":[],"parent_ids":["city:1493","region:60346","country:145","continent:2"],"perex":null,"customer_rating":null,"star_rating":null,"star_rating_unofficial":null,"thumbnail_url":null},{"id":"poi:21743924","level":"poi","rating":0.001,"quadkey":"122313323032111212","location":{"lat":11.6018583,"lng":43.1466813},"bounding_box":null,"name":"Porto Arwad bwrtw arwad","name_suffix":"Gibuti, Gibuti","url":"https://travel.sygic.com/go/poi:21743924","duration":3600,"marker":"eating:restaurant","categories":["eating"],"parent_ids":["city:1493","region:60346","country:145","continent:2"],"perex":null,"customer_rating":null,"star_rating":null,"star_rating_unofficial":null,"thumbnail_url":null},{"id":"poi:19545885","level":"poi","rating":0.001,"quadkey":"122313323032113021","location":{"lat":11.5948627,"lng":43.1456832},"bounding_box":null,"name":"Pool Insurance","name_suffix":"Gibuti, Gibuti","url":"https://travel.sygic.com/go/poi:19545885","duration":3600,"marker":"shopping","categories":["shopping"],"parent_ids":["city:1493","region:60346","country:145","continent:2"],"perex":null,"customer_rating":null,"star_rating":null,"star_rating_unofficial":null,"thumbnail_url":null},{"id":"poi:24744852","level":"poi","rating":0.001,"quadkey":"122313323032300022","location":{"lat":11.5608754,"lng":43.1114169},"bounding_box":null,"name":"Mosquée","name_suffix":"Gibuti, Gibuti","url":"https://travel.sygic.com/go/poi:24744852","duration":1800,"marker":"other:place_of_worship:mosque","categories":["sightseeing"],"parent_ids":["city:1773797","city:1493","region:60346","country:145","continent:2"],"perex":null,"customer_rating":null,"star_rating":null,"star_rating_unofficial":null,"thumbnail_url":null},{"id":"poi:21994756","level":"poi","rating":0.001,"quadkey":"122331100101131131","location":{"lat":11.1537921,"lng":42.7137872},"bounding_box":null,"name":"Fndq lw balmaray","name_suffix":"Ali Sabieh, Gibuti","url":"https://travel.sygic.com/go/poi:21994756","duration":3600,"marker":"sleeping:hotel","categories":["sleeping"],"parent_ids":["city:431340","region:60201","country:145","continent:2"],"perex":null,"customer_rating":null,"star_rating":null,"star_rating_unofficial":null,"thumbnail_url":null},{"id":"poi:24707389","level":"poi","rating":0.001,"quadkey":"122313323032302123","location":{"lat":11.5500325,"lng":43.1172581},"bounding_box":null,"name":"4 arrondissement","name_suffix":"Balbala, Gibuti","url":"https://travel.sygic.com/go/poi:24707389","duration":3600,"marker":"other:emergency:police","categories":[],"parent_ids":["city:1773797","region:60346","country:145","continent:2"],"perex":null,"customer_rating":null,"star_rating":null,"star_rating_unofficial":null,"thumbnail_url":null},{"id":"poi:24709032","level":"poi","rating":0.001,"quadkey":"122313323032213313","location":{"lat":11.5483468,"lng":43.1092545},"bounding_box":null,"name":"Restaurant","name_suffix":"Balbala, Gibuti","url":"https://travel.sygic.com/go/poi:24709032","duration":3600,"marker":"eating:restaurant","categories":["eating"],"parent_ids":["city:1773797","region:60346","country:145","continent:2"],"perex":null,"customer_rating":null,"star_rating":null,"star_rating_unofficial":null,"thumbnail_url":null},{"id":"poi:24717698","level":"poi","rating":0.001,"quadkey":"122313323032211320","location":{"lat":11.5575279,"lng":43.1061559},"bounding_box":null,"name":"Shopping Mall","name_suffix":"Balbala, Gibuti","url":"https://travel.sygic.com/go/poi:24717698","duration":5400,"marker":"shopping:centre:mall","categories":["shopping"],"parent_ids":["city:1773797","region:60346","country:145","continent:2"],"perex":null,"customer_rating":null,"star_rating":null,"star_rating_unofficial":null,"thumbnail_url":null},{"id":"poi:24717764","level":"poi","rating":0.001,"quadkey":"122313323032211220","location":{"lat":11.5576612,"lng":43.1004896},"bounding_box":null,"name":"Populaire","name_suffix":"Balbala, Gibuti","url":"https://travel.sygic.com/go/poi:24717764","duration":900,"marker":"other:pharmacy","categories":["shopping"],"parent_ids":["city:1773797","region:60346","country:145","continent:2"],"perex":null,"customer_rating":null,"star_rating":null,"star_rating_unofficial":null,"thumbnail_url":null},{"id":"poi:24718148","level":"poi","rating":0.001,"quadkey":"122313323032212111","location":{"lat":11.5550386,"lng":43.0986423},"bounding_box":null,"name":"Kiosque machallah","name_suffix":"Balbala, Gibuti","url":"https://travel.sygic.com/go/poi:24718148","duration":3600,"marker":"shopping:kiosk","categories":["shopping"],"parent_ids":["city:1773797","region:60346","country:145","continent:2"],"perex":null,"customer_rating":null,"star_rating":null,"star_rating_unofficial":null,"thumbnail_url":null},{"id":"poi:24718150","level":"poi","rating":0.001,"quadkey":"122313323032212131","location":{"lat":11.5524826,"lng":43.0983966},"bounding_box":null,"name":"Distributeur Poulet","name_suffix":"Balbala, Gibuti","url":"https://travel.sygic.com/go/poi:24718150","duration":3600,"marker":"shopping:kiosk","categories":["shopping"],"parent_ids":["city:1773797","region:60346","country:145","continent:2"],"perex":null,"customer_rating":null,"star_rating":null,"star_rating_unofficial":null,"thumbnail_url":null},{"id":"poi:24718286","level":"poi","rating":0.001,"quadkey":"122313323032211223","location":{"lat":11.5557699,"lng":43.1016053},"bounding_box":null,"name":"Boulangerie","name_suffix":"Balbala, Gibuti","url":"https://travel.sygic.com/go/poi:24718286","duration":1800,"marker":"shopping:market","categories":["shopping"],"parent_ids":["city:1773797","region:60346","country:145","continent:2"],"perex":null,"customer_rating":null,"star_rating":null,"star_rating_unofficial":null,"thumbnail_url":null},{"id":"poi:24832855","level":"poi","rating":0.001,"quadkey":"122313323032030301","location":{"lat":11.5816005,"lng":43.0956026},"bounding_box":null,"name":"Restaurant","name_suffix":"Gibuti","url":"https://travel.sygic.com/go/poi:24832855","duration":3600,"marker":"eating:restaurant","categories":["eating"],"parent_ids":["country:145","continent:2"],"perex":null,"customer_rating":null,"star_rating":null,"star_rating_unofficial":null,"thumbnail_url":null},{"id":"poi:24726394","level":"poi","rating":0.001,"quadkey":"122313323032211312","location":{"lat":11.5582966,"lng":43.1078189},"bounding_box":null,"name":"boulangerie wahle-daba","name_suffix":"Balbala, Gibuti","url":"https://travel.sygic.com/go/poi:24726394","duration":3600,"marker":"shopping:bakery","categories":["shopping"],"parent_ids":["city:1773797","region:60346","country:145","continent:2"],"perex":null,"customer_rating":null,"star_rating":null,"star_rating_unofficial":null,"thumbnail_url":null},{"id":"poi:6576139","level":"poi","rating":0.001,"quadkey":"122313322123303212","location":{"lat":11.5478301,"lng":42.6851825},"bounding_box":null,"name":"Beach","name_suffix":"Arta, Gibuti","url":"https://travel.sygic.com/go/poi:6576139","duration":14400,"marker":"relaxing:beach","categories":["relaxing"],"parent_ids":["region:62575","country:145","continent:2"],"perex":null,"customer_rating":null,"star_rating":null,"star_rating_unofficial":null,"thumbnail_url":null},{"id":"poi:5478407","level":"poi","rating":0.001,"quadkey":"122313323032110103","location":{"lat":11.6077913,"lng":43.1393159},"bounding_box":null,"name":"Pier","name_suffix":"Gibuti, Gibuti","url":"https://travel.sygic.com/go/poi:5478407","duration":900,"marker":"other:pier","categories":[],"parent_ids":["city:1493","region:60346","country:145","continent:2"],"perex":null,"customer_rating":null,"star_rating":null,"star_rating_unofficial":null,"thumbnail_url":null},{"id":"poi:21743889","level":"poi","rating":0.001,"quadkey":"122313323032311220","location":{"lat":11.5580404,"lng":43.1434122},"bounding_box":null,"name":"Masdjid Al-Nadwat msjd alndwt","name_suffix":"Gibuti, Gibuti","url":"https://travel.sygic.com/go/poi:21743889","duration":1800,"marker":"other:place_of_worship","categories":[],"parent_ids":["city:1493","region:60346","country:145","continent:2"],"perex":null,"customer_rating":null,"star_rating":null,"star_rating_unofficial":null,"thumbnail_url":null},{"id":"poi:21743923","level":"poi","rating":0.001,"quadkey":"122313323032111200","location":{"lat":11.6028765,"lng":43.1437846},"bounding_box":null,"name":"Restaurant Mont Liban mtm jbl lbnan","name_suffix":"Gibuti, Gibuti","url":"https://travel.sygic.com/go/poi:21743923","duration":3600,"marker":"eating:restaurant","categories":["eating"],"parent_ids":["city:1493","region:60346","country:145","continent:2"],"perex":null,"customer_rating":null,"star_rating":null,"star_rating_unofficial":null,"thumbnail_url":null},{"id":"poi:19875194","level":"poi","rating":0.001,"quadkey":"122313323032113030","location":{"lat":11.5954634,"lng":43.146797},"bounding_box":null,"name":"Le Pizzaiollo Central","name_suffix":"Gibuti, Gibuti","url":"https://travel.sygic.com/go/poi:19875194","duration":3600,"marker":"eating:restaurant:pizza","categories":["eating"],"parent_ids":["city:1493","region:60346","country:145","continent:2"],"perex":null,"customer_rating":null,"star_rating":null,"star_rating_unofficial":null,"thumbnail_url":null},{"id":"poi:20722214","level":"poi","rating":0.001,"quadkey":"122313233311002210","location":{"lat":11.5067395,"lng":42.1034028},"bounding_box":null,"name":"Msjd ywbwky","name_suffix":"Yoboki, Gibuti","url":"https://travel.sygic.com/go/poi:20722214","duration":1800,"marker":"other:place_of_worship","categories":[],"parent_ids":["city:431361","region:61686","region:59265","country:145","continent:2"],"perex":null,"customer_rating":null,"star_rating":null,"star_rating_unofficial":null,"thumbnail_url":null},{"id":"poi:21993146","level":"poi","rating":0.001,"quadkey":"122313323032300011","location":{"lat":11.5648306,"lng":43.1156762},"bounding_box":null,"name":"Masdjid As-Safa msjd alsfa","name_suffix":"Gibuti, Gibuti","url":"https://travel.sygic.com/go/poi:21993146","duration":1800,"marker":"other:place_of_worship","categories":[],"parent_ids":["city:1773797","city:1493","region:60346","country:145","continent:2"],"perex":null,"customer_rating":null,"star_rating":null,"star_rating_unofficial":null,"thumbnail_url":null},{"id":"poi:10665960","level":"poi","rating":0.001,"quadkey":"122313323033220300","location":{"lat":11.5384434,"lng":43.1599139},"bounding_box":null,"name":"Observation Tower","name_suffix":"Djibouti, Gibuti","url":"https://travel.sygic.com/go/poi:10665960","duration":1800,"marker":"sightseeing:tower:lookout:observation","categories":[],"parent_ids":["region:60346","country:145","continent:2"],"perex":null,"customer_rating":null,"star_rating":null,"star_rating_unofficial":null,"thumbnail_url":null},{"id":"poi:10876355","level":"poi","rating":0.001,"quadkey":"122313323032210333","location":{"lat":11.5555849,"lng":43.099122},"bounding_box":null,"name":"Place of Worship","name_suffix":"Balbala, Gibuti","url":"https://travel.sygic.com/go/poi:10876355","duration":1800,"marker":"other:place_of_worship","categories":[],"parent_ids":["city:1773797","region:60346","country:145","continent:2"],"perex":null,"customer_rating":null,"star_rating":null,"star_rating_unofficial":null,"thumbnail_url":null},{"id":"poi:9633151","level":"poi","rating":0.001,"quadkey":"122313323032113122","location":{"lat":11.5934069,"lng":43.1494673},"bounding_box":null,"name":"Masdjid Al Sada msjd alsdy","name_suffix":"Gibuti, Gibuti","url":"https://travel.sygic.com/go/poi:9633151","duration":1800,"marker":"other:place_of_worship","categories":[],"parent_ids":["city:1493","region:60346","country:145","continent:2"],"perex":null,"customer_rating":null,"star_rating":null,"star_rating_unofficial":null,"thumbnail_url":null},{"id":"poi:9066869","level":"poi","rating":0.001,"quadkey":"122313321320323002","location":{"lat":11.9621266,"lng":43.2978673},"bounding_box":null,"name":"Obock awbwk","name_suffix":"Obock, Gibuti","url":"https://travel.sygic.com/go/poi:9066869","duration":1800,"marker":"sightseeing:marina","categories":[],"parent_ids":["city:432020","region:61695","region:60343","country:145","continent:2"],"perex":null,"customer_rating":null,"star_rating":null,"star_rating_unofficial":null,"thumbnail_url":null},{"id":"poi:10864601","level":"poi","rating":0.001,"quadkey":"122313323032331103","location":{"lat":11.5427317,"lng":43.1510432},"bounding_box":null,"name":"ATM","name_suffix":"Djibouti, Gibuti","url":"https://travel.sygic.com/go/poi:10864601","duration":300,"marker":"other:atm","categories":[],"parent_ids":["region:60346","country:145","continent:2"],"perex":null,"customer_rating":null,"star_rating":null,"star_rating_unofficial":null,"thumbnail_url":null},{"id":"poi:10882146","level":"poi","rating":0.001,"quadkey":"122313323032132010","location":{"lat":11.5762713,"lng":43.1352017},"bounding_box":null,"name":"Grande Mosquee de Djibouti almsjd alkbyr ljybwty","name_suffix":"Gibuti, Gibuti","url":"https://travel.sygic.com/go/poi:10882146","duration":1800,"marker":"other:place_of_worship","categories":[],"parent_ids":["city:1493","region:60346","country:145","continent:2"],"perex":null,"customer_rating":null,"star_rating":null,"star_rating_unofficial":null,"thumbnail_url":null},{"id":"poi:9629243","level":"poi","rating":0.001,"quadkey":"122313323032113032","location":{"lat":11.5931986,"lng":43.1467863},"bounding_box":null,"name":"Daallo Airlines","name_suffix":"Gibuti, Gibuti","url":"https://travel.sygic.com/go/poi:9629243","duration":3600,"marker":"other:travel_agency","categories":["shopping"],"parent_ids":["city:1493","region:60346","country:145","continent:2"],"perex":null,"customer_rating":null,"star_rating":null,"star_rating_unofficial":null,"thumbnail_url":null},{"id":"poi:9629597","level":"poi","rating":0.001,"quadkey":"122313323032113021","location":{"lat":11.5949848,"lng":43.1455896},"bounding_box":null,"name":"Plein ciel Hotel kaml alsma fndq","name_suffix":"Gibuti, Gibuti","url":"https://travel.sygic.com/go/poi:9629597","duration":3600,"marker":"sleeping:hotel","categories":["sleeping"],"parent_ids":["city:1493","region:60346","country:145","continent:2"],"perex":null,"customer_rating":null,"star_rating":null,"star_rating_unofficial":null,"thumbnail_url":null},{"id":"poi:9615036","level":"poi","rating":0.001,"quadkey":"122313323032113030","location":{"lat":11.5953201,"lng":43.1471087},"bounding_box":null,"name":"Cyber Cafe Filga informatique sybr kafyh fylgha kwmbywtr","name_suffix":"Gibuti, Gibuti","url":"https://travel.sygic.com/go/poi:9615036","duration":3600,"marker":"shopping:electronics:computers","categories":["shopping"],"parent_ids":["city:1493","region:60346","country:145","continent:2"],"perex":null,"customer_rating":null,"star_rating":null,"star_rating_unofficial":null,"thumbnail_url":null},{"id":"poi:10523678","level":"poi","rating":0.001,"quadkey":"122313323032111103","location":{"lat":11.6077122,"lng":43.151203},"bounding_box":null,"name":"French Embassy","name_suffix":"Gibuti, Gibuti","url":"https://travel.sygic.com/go/poi:10523678","duration":900,"marker":"sightseeing:town_hall:city_hall","categories":[],"parent_ids":["city:1493","region:60346","country:145","continent:2"],"perex":null,"customer_rating":null,"star_rating":null,"star_rating_unofficial":null,"thumbnail_url":null},{"id":"poi:15068819","level":"poi","rating":0.001,"quadkey":"122313323032310122","location":{"lat":11.5608815,"lng":43.1379666},"bounding_box":null,"name":"Cimetiere d'Ambouli mqbrt ambwly","name_suffix":"Gibuti, Gibuti","url":"https://travel.sygic.com/go/poi:15068819","duration":1800,"marker":"other:cemetery","categories":[],"parent_ids":["city:1493","region:60346","country:145","continent:2"],"perex":null,"customer_rating":null,"star_rating":null,"star_rating_unofficial":null,"thumbnail_url":null},{"id":"poi:15083554","level":"poi","rating":0.001,"quadkey":"122313323032113031","location":{"lat":11.5944774,"lng":43.14808},"bounding_box":null,"name":"Ministere de L'Interieure wzart aldakhlyt","name_suffix":"Gibuti, Gibuti","url":"https://travel.sygic.com/go/poi:15083554","duration":3600,"marker":"default","categories":[],"parent_ids":["city:1493","region:60346","country:145","continent:2"],"perex":null,"customer_rating":null,"star_rating":null,"star_rating_unofficial":null,"thumbnail_url":null},{"id":"poi:12733247","level":"poi","rating":0.001,"quadkey":"122313323032131232","location":{"lat":11.5778465,"lng":43.1466241},"bounding_box":null,"name":"Cinema Le Paris alsynma barys","name_suffix":"Gibuti, Gibuti","url":"https://travel.sygic.com/go/poi:12733247","duration":7200,"marker":"going_out:cinema","categories":["going_out"],"parent_ids":["city:1493","region:60346","country:145","continent:2"],"perex":null,"customer_rating":null,"star_rating":null,"star_rating_unofficial":null,"thumbnail_url":null},{"id":"poi:12537957","level":"poi","rating":0.001,"quadkey":"122313323032113021","location":{"lat":11.5954614,"lng":43.1459618},"bounding_box":null,"name":"Pole Medical almrkz altby","name_suffix":"Gibuti, Gibuti","url":"https://travel.sygic.com/go/poi:12537957","duration":3600,"marker":"other:doctor:clinic","categories":[],"parent_ids":["city:1493","region:60346","country:145","continent:2"],"perex":null,"customer_rating":null,"star_rating":null,"star_rating_unofficial":null,"thumbnail_url":null},{"id":"poi:7745242","level":"poi","rating":0.001,"quadkey":"122313323013320113","location":{"lat":11.7151095,"lng":43.2083759},"bounding_box":null,"name":"Beach","name_suffix":"Gibuti","url":"https://travel.sygic.com/go/poi:7745242","duration":14400,"marker":"relaxing:beach","categories":["relaxing"],"parent_ids":["country:145","continent:2"],"perex":null,"customer_rating":null,"star_rating":null,"star_rating_unofficial":null,"thumbnail_url":null},{"id":"poi:7750045","level":"poi","rating":0.001,"quadkey":"122313323032303003","location":{"lat":11.5533912,"lng":43.1235514},"bounding_box":null,"name":"Soccer Field","name_suffix":"Balbala, Gibuti","url":"https://travel.sygic.com/go/poi:7750045","duration":7200,"marker":"sports:field:soccer","categories":["doing_sports"],"parent_ids":["city:1773797","region:60346","country:145","continent:2"],"perex":null,"customer_rating":null,"star_rating":null,"star_rating_unofficial":null,"thumbnail_url":null},{"id":"poi:7425900","level":"poi","rating":0.001,"quadkey":"122313323033000210","location":{"lat":11.6034795,"lng":43.1579377},"bounding_box":null,"name":"Swimming Pool","name_suffix":"Gibuti, Gibuti","url":"https://travel.sygic.com/go/poi:7425900","duration":7200,"marker":"sports:pool:swimming","categories":["doing_sports"],"parent_ids":["city:1493","region:60346","country:145","continent:2"],"perex":null,"customer_rating":null,"star_rating":null,"star_rating_unofficial":null,"thumbnail_url":null},{"id":"poi:7916840","level":"poi","rating":0.001,"quadkey":"122331100101113223","location":{"lat":11.1575017,"lng":42.7060513},"bounding_box":null,"name":"College de Ali Sabieh klyt ly sbyh","name_suffix":"Ali Sabieh, Gibuti","url":"https://travel.sygic.com/go/poi:7916840","duration":2700,"marker":"discovering:university:college","categories":[],"parent_ids":["city:431340","region:60201","country:145","continent:2"],"perex":null,"customer_rating":null,"star_rating":null,"star_rating_unofficial":null,"thumbnail_url":null},{"id":"poi:6847855","level":"poi","rating":0.001,"quadkey":"122313323032113201","location":{"lat":11.5923501,"lng":43.1453694},"bounding_box":null,"name":"Marche Central alswq almrkzy","name_suffix":"Gibuti, Gibuti","url":"https://travel.sygic.com/go/poi:6847855","duration":1800,"marker":"shopping:market","categories":["shopping"],"parent_ids":["city:1493","region:60346","country:145","continent:2"],"perex":null,"customer_rating":null,"star_rating":null,"star_rating_unofficial":null,"thumbnail_url":null},{"id":"poi:6564367","level":"poi","rating":0.001,"quadkey":"122313323013213120","location":{"lat":11.7236558,"lng":43.1933922},"bounding_box":null,"name":"Beach","name_suffix":"Gibuti","url":"https://travel.sygic.com/go/poi:6564367","duration":14400,"marker":"relaxing:beach","categories":["relaxing"],"parent_ids":["country:145","continent:2"],"perex":null,"customer_rating":null,"star_rating":null,"star_rating_unofficial":null,"thumbnail_url":null},{"id":"poi:7503680","level":"poi","rating":0.001,"quadkey":"122313323013301212","location":{"lat":11.7305634,"lng":43.212575},"bounding_box":null,"name":"Beach","name_suffix":"Gibuti","url":"https://travel.sygic.com/go/poi:7503680","duration":14400,"marker":"relaxing:beach","categories":["relaxing"],"parent_ids":["country:145","continent:2"],"perex":null,"customer_rating":null,"star_rating":null,"star_rating_unofficial":null,"thumbnail_url":null},{"id":"poi:7535856","level":"poi","rating":0.001,"quadkey":"122313323033002222","location":{"lat":11.5878471,"lng":43.154414},"bounding_box":null,"name":"Tennis","name_suffix":"Gibuti, Gibuti","url":"https://travel.sygic.com/go/poi:7535856","duration":7200,"marker":"sports:tennis","categories":["doing_sports"],"parent_ids":["city:1493","region:60346","country:145","continent:2"],"perex":null,"customer_rating":null,"star_rating":null,"star_rating_unofficial":null,"thumbnail_url":null},{"id":"poi:7588669","level":"poi","rating":0.001,"quadkey":"122313323032103113","location":{"lat":11.5958639,"lng":43.1319273},"bounding_box":null,"name":"Pier","name_suffix":"Gibuti, Gibuti","url":"https://travel.sygic.com/go/poi:7588669","duration":900,"marker":"other:pier","categories":[],"parent_ids":["city:1493","region:60346","country:145","continent:2"],"perex":null,"customer_rating":null,"star_rating":null,"star_rating_unofficial":null,"thumbnail_url":null},{"id":"poi:8002198","level":"poi","rating":0.001,"quadkey":"122331100111311310","location":{"lat":11.1298277,"lng":42.8881254},"bounding_box":null,"name":"Sous-préfecture","name_suffix":"Ali Addé, Gibuti","url":"https://travel.sygic.com/go/poi:8002198","duration":3600,"marker":"other:emergency:police","categories":[],"parent_ids":["city:797467","region:60201","country:145","continent:2"],"perex":null,"customer_rating":null,"star_rating":null,"star_rating_unofficial":null,"thumbnail_url":null},{"id":"poi:6503941","level":"poi","rating":0.001,"quadkey":"122313323032111321","location":{"lat":11.6001329,"lng":43.1512567},"bounding_box":null,"name":"Cathédrale Notre-Dame du Bon-Pasteur","name_suffix":"Gibuti, Gibuti","url":"https://travel.sygic.com/go/poi:6503941","duration":1800,"marker":"other:place_of_worship","categories":[],"parent_ids":["city:1493","region:60346","country:145","continent:2"],"perex":null,"customer_rating":null,"star_rating":null,"star_rating_unofficial":null,"thumbnail_url":null},{"id":"poi:6556053","level":"poi","rating":0.001,"quadkey":"122313323013231122","location":{"lat":11.7121742,"lng":43.1940322},"bounding_box":null,"name":"Beach","name_suffix":"Gibuti","url":"https://travel.sygic.com/go/poi:6556053","duration":14400,"marker":"relaxing:beach","categories":["relaxing"],"parent_ids":["country:145","continent:2"],"perex":null,"customer_rating":null,"star_rating":null,"star_rating_unofficial":null,"thumbnail_url":null},{"id":"poi:6458809","level":"poi","rating":0.001,"quadkey":"122313323032113003","location":{"lat":11.5966543,"lng":43.1456657},"bounding_box":null,"name":"Residence Hotel Bellevue alaqamt fndq blfyw","name_suffix":"Gibuti, Gibuti","url":"https://travel.sygic.com/go/poi:6458809","duration":3600,"marker":"sleeping:hotel","categories":["sleeping"],"parent_ids":["city:1493","region:60346","country:145","continent:2"],"perex":null,"customer_rating":null,"star_rating":null,"star_rating_unofficial":null,"thumbnail_url":null},{"id":"poi:19803875","level":"poi","rating":0.001,"quadkey":"122313323030333120","location":{"lat":11.6170525,"lng":43.1495585},"bounding_box":null,"name":"Eritrea Embassy","name_suffix":"Gibuti, Gibuti","url":"https://travel.sygic.com/go/poi:19803875","duration":3600,"marker":"other:building:embassy","categories":[],"parent_ids":["city:1493","region:60346","country:145","continent:2"],"perex":null,"customer_rating":null,"star_rating":null,"star_rating_unofficial":null,"thumbnail_url":null},{"id":"poi:18300947","level":"poi","rating":0.001,"quadkey":"122313323032130233","location":{"lat":11.577534,"lng":43.136559},"bounding_box":null,"name":"Riyaad Market","name_suffix":"Gibuti, Gibuti","url":"https://travel.sygic.com/go/poi:18300947","duration":1800,"marker":"shopping:market","categories":["shopping"],"parent_ids":["city:1493","region:60346","country:145","continent:2"],"perex":null,"customer_rating":null,"star_rating":null,"star_rating_unofficial":null,"thumbnail_url":null},{"id":"poi:18769148","level":"poi","rating":0.001,"quadkey":"122313321320322103","location":{"lat":11.962537,"lng":43.293187},"bounding_box":null,"name":"Beach","name_suffix":"Obock, Gibuti","url":"https://travel.sygic.com/go/poi:18769148","duration":14400,"marker":"relaxing:beach","categories":["relaxing"],"parent_ids":["city:432020","region:61695","region:60343","country:145","continent:2"],"perex":null,"customer_rating":null,"star_rating":null,"star_rating_unofficial":null,"thumbnail_url":null},{"id":"poi:5613349","level":"poi","rating":0.001,"quadkey":"122313323032111320","location":{"lat":11.6003948,"lng":43.1500862},"bounding_box":null,"name":"Residence de l'ambassade de France aqamt alsfart alfrnsyt","name_suffix":"Gibuti, Gibuti","url":"https://travel.sygic.com/go/poi:5613349","duration":3600,"marker":"other:building:embassy","categories":[],"parent_ids":["city:1493","region:60346","country:145","continent:2"],"perex":null,"customer_rating":null,"star_rating":null,"star_rating_unofficial":null,"thumbnail_url":null},{"id":"poi:5613377","level":"poi","rating":0.001,"quadkey":"122313323030333011","location":{"lat":11.6198677,"lng":43.1480532},"bounding_box":null,"name":"Tennis","name_suffix":"Gibuti, Gibuti","url":"https://travel.sygic.com/go/poi:5613377","duration":7200,"marker":"sports:tennis","categories":["doing_sports"],"parent_ids":["city:1493","region:60346","country:145","continent:2"],"perex":null,"customer_rating":null,"star_rating":null,"star_rating_unofficial":null,"thumbnail_url":null},{"id":"poi:19545849","level":"poi","rating":0.001,"quadkey":"122313323032111130","location":{"lat":11.6055161,"lng":43.1529063},"bounding_box":null,"name":"Singh Indian Restaurant","name_suffix":"Gibuti, Gibuti","url":"https://travel.sygic.com/go/poi:19545849","duration":3600,"marker":"eating:restaurant:indian","categories":["eating"],"parent_ids":["city:1493","region:60346","country:145","continent:2"],"perex":null,"customer_rating":null,"star_rating":null,"star_rating_unofficial":null,"thumbnail_url":null},{"id":"poi:18797247","level":"poi","rating":0.001,"quadkey":"122313321320321023","location":{"lat":11.9695217,"lng":43.2985576},"bounding_box":null,"name":"Beach","name_suffix":"Obock, Gibuti","url":"https://travel.sygic.com/go/poi:18797247","duration":14400,"marker":"relaxing:beach","categories":["relaxing"],"parent_ids":["city:432020","region:61695","region:60343","country:145","continent:2"],"perex":null,"customer_rating":null,"star_rating":null,"star_rating_unofficial":null,"thumbnail_url":null},{"id":"poi:24745015","level":"poi","rating":0.001,"quadkey":"122313323032122322","location":{"lat":11.5669431,"lng":43.1167661},"bounding_box":null,"name":"Cimetiére de Cheick Moussa","name_suffix":"Gibuti, Gibuti","url":"https://travel.sygic.com/go/poi:24745015","duration":1800,"marker":"other:cemetery","categories":[],"parent_ids":["city:1773797","city:1493","region:60346","country:145","continent:2"],"perex":null,"customer_rating":null,"star_rating":null,"star_rating_unofficial":null,"thumbnail_url":null},{"id":"poi:24792214","level":"poi","rating":0.001,"quadkey":"122313323033020221","location":{"lat":11.5795194,"lng":43.1570169},"bounding_box":null,"name":"Pyramid","name_suffix":"Gibuti, Gibuti","url":"https://travel.sygic.com/go/poi:24792214","duration":3600,"marker":"traveling:car:repair","categories":["shopping","traveling"],"parent_ids":["city:1493","region:60346","country:145","continent:2"],"perex":null,"customer_rating":null,"star_rating":null,"star_rating_unofficial":null,"thumbnail_url":null},{"id":"poi:24741021","level":"poi","rating":0.001,"quadkey":"122313323032133302","location":{"lat":11.570032,"lng":43.1492745},"bounding_box":null,"name":"Tennis","name_suffix":"Gibuti, Gibuti","url":"https://travel.sygic.com/go/poi:24741021","duration":7200,"marker":"sports:tennis","categories":["doing_sports"],"parent_ids":["city:1493","region:60346","country:145","continent:2"],"perex":null,"customer_rating":null,"star_rating":null,"star_rating_unofficial":null,"thumbnail_url":null},{"id":"poi:24741023","level":"poi","rating":0.001,"quadkey":"122313323032311310","location":{"lat":11.5596049,"lng":43.1522639},"bounding_box":null,"name":"Proxy Shop","name_suffix":"Gibuti, Gibuti","url":"https://travel.sygic.com/go/poi:24741023","duration":3600,"marker":"shopping:convenience_store","categories":["shopping"],"parent_ids":["city:1493","region:60346","country:145","continent:2"],"perex":null,"customer_rating":null,"star_rating":null,"star_rating_unofficial":null,"thumbnail_url":null},{"id":"poi:24707217","level":"poi","rating":0.001,"quadkey":"122313323032300232","location":{"lat":11.556133,"lng":43.1135595},"bounding_box":null,"name":"roi fahad","name_suffix":"Gibuti, Gibuti","url":"https://travel.sygic.com/go/poi:24707217","duration":7200,"marker":"sports:bat:baseball","categories":["doing_sports"],"parent_ids":["city:1773797","city:1493","region:60346","country:145","continent:2"],"perex":null,"customer_rating":null,"star_rating":null,"star_rating_unofficial":null,"thumbnail_url":null},{"id":"poi:24707297","level":"poi","rating":0.001,"quadkey":"122313323032300232","location":{"lat":11.5566466,"lng":43.1133858},"bounding_box":null,"name":"city holl","name_suffix":"Gibuti, Gibuti","url":"https://travel.sygic.com/go/poi:24707297","duration":3600,"marker":"sleeping:hotel","categories":["sleeping"],"parent_ids":["city:1773797","city:1493","region:60346","country:145","continent:2"],"perex":null,"customer_rating":null,"star_rating":null,"star_rating_unofficial":null,"thumbnail_url":null},{"id":"poi:24707391","level":"poi","rating":0.001,"quadkey":"122313323032302122","location":{"lat":11.5501706,"lng":43.1170416},"bounding_box":null,"name":"ARKAM","name_suffix":"Balbala, Gibuti","url":"https://travel.sygic.com/go/poi:24707391","duration":1800,"marker":"other:place_of_worship:mosque","categories":["sightseeing"],"parent_ids":["city:1773797","region:60346","country:145","continent:2"],"perex":null,"customer_rating":null,"star_rating":null,"star_rating_unofficial":null,"thumbnail_url":null},{"id":"poi:24717523","level":"poi","rating":0.001,"quadkey":"122313323032211223","location":{"lat":11.5558953,"lng":43.1018033},"bounding_box":null,"name":"Dalhis","name_suffix":"Balbala, Gibuti","url":"https://travel.sygic.com/go/poi:24717523","duration":3600,"marker":"shopping:diy:hardware","categories":["shopping"],"parent_ids":["city:1773797","region:60346","country:145","continent:2"],"perex":null,"customer_rating":null,"star_rating":null,"star_rating_unofficial":null,"thumbnail_url":null},{"id":"poi:24832852","level":"poi","rating":0.001,"quadkey":"122313323032030122","location":{"lat":11.5828985,"lng":43.0943044},"bounding_box":null,"name":"Bank","name_suffix":"Gibuti","url":"https://travel.sygic.com/go/poi:24832852","duration":900,"marker":"other:bank","categories":[],"parent_ids":["country:145","continent:2"],"perex":null,"customer_rating":null,"star_rating":null,"star_rating_unofficial":null,"thumbnail_url":null},{"id":"poi:24832859","level":"poi","rating":0.001,"quadkey":"122313323032030033","location":{"lat":11.58309,"lng":43.0927228},"bounding_box":null,"name":"Place of Worship","name_suffix":"Djibouti, Gibuti","url":"https://travel.sygic.com/go/poi:24832859","duration":1800,"marker":"other:place_of_worship","categories":[],"parent_ids":["region:60346","country:145","continent:2"],"perex":null,"customer_rating":null,"star_rating":null,"star_rating_unofficial":null,"thumbnail_url":null},{"id":"poi:24718138","level":"poi","rating":0.001,"quadkey":"122313323032210312","location":{"lat":11.5584293,"lng":43.0974976},"bounding_box":null,"name":"Commiseriat de la police","name_suffix":"Balbala, Gibuti","url":"https://travel.sygic.com/go/poi:24718138","duration":3600,"marker":"other:emergency:police","categories":[],"parent_ids":["city:1773797","region:60346","country:145","continent:2"],"perex":null,"customer_rating":null,"star_rating":null,"star_rating_unofficial":null,"thumbnail_url":null},{"id":"poi:24718152","level":"poi","rating":0.001,"quadkey":"122313323032212113","location":{"lat":11.5529022,"lng":43.0983849},"bounding_box":null,"name":"Kiosque kassim","name_suffix":"Balbala, Gibuti","url":"https://travel.sygic.com/go/poi:24718152","duration":3600,"marker":"shopping:kiosk","categories":["shopping"],"parent_ids":["city:1773797","region:60346","country:145","continent:2"],"perex":null,"customer_rating":null,"star_rating":null,"star_rating_unofficial":null,"thumbnail_url":null},{"id":"poi:24718154","level":"poi","rating":0.001,"quadkey":"122313323032212131","location":{"lat":11.552421,"lng":43.0983983},"bounding_box":null,"name":"restaurant yemenite","name_suffix":"Balbala, Gibuti","url":"https://travel.sygic.com/go/poi:24718154","duration":1800,"marker":"eating:food_court","categories":["eating"],"parent_ids":["city:1773797","region:60346","country:145","continent:2"],"perex":null,"customer_rating":null,"star_rating":null,"star_rating_unofficial":null,"thumbnail_url":null},{"id":"poi:24718557","level":"poi","rating":0.001,"quadkey":"122313323032211221","location":{"lat":11.55779,"lng":43.1010738},"bounding_box":null,"name":"Mandi","name_suffix":"Balbala, Gibuti","url":"https://travel.sygic.com/go/poi:24718557","duration":3600,"marker":"eating:cafe","categories":["eating"],"parent_ids":["city:1773797","region:60346","country:145","continent:2"],"perex":null,"customer_rating":null,"star_rating":null,"star_rating_unofficial":null,"thumbnail_url":null},{"id":"poi:24718564","level":"poi","rating":0.001,"quadkey":"122313323032211201","location":{"lat":11.5604888,"lng":43.1015324},"bounding_box":null,"name":"Playground","name_suffix":"Balbala, Gibuti","url":"https://travel.sygic.com/go/poi:24718564","duration":7200,"marker":"playing:playground","categories":["playing"],"parent_ids":["city:1773797","region:60346","country:145","continent:2"],"perex":null,"customer_rating":null,"star_rating":null,"star_rating_unofficial":null,"thumbnail_url":null},{"id":"poi:24718734","level":"poi","rating":0.001,"quadkey":"122313323032211221","location":{"lat":11.5579207,"lng":43.1010946},"bounding_box":null,"name":"Restaurant","name_suffix":"Balbala, Gibuti","url":"https://travel.sygic.com/go/poi:24718734","duration":3600,"marker":"eating:restaurant","categories":["eating"],"parent_ids":["city:1773797","region:60346","country:145","continent:2"],"perex":null,"customer_rating":null,"star_rating":null,"star_rating_unofficial":null,"thumbnail_url":null},{"id":"poi:24722114","level":"poi","rating":0.001,"quadkey":"122313323032111210","location":{"lat":11.6031383,"lng":43.1473411},"bounding_box":null,"name":"Parc Aquatique Pink Blue","name_suffix":"Gibuti, Gibuti","url":"https://travel.sygic.com/go/poi:24722114","duration":21600,"marker":"playing:park:theme","categories":["playing"],"parent_ids":["city:1493","region:60346","country:145","continent:2"],"perex":null,"customer_rating":null,"star_rating":null,"star_rating_unofficial":null,"thumbnail_url":null},{"id":"poi:24722116","level":"poi","rating":0.001,"quadkey":"122313323032112202","location":{"lat":11.5907885,"lng":43.1329399},"bounding_box":null,"name":"GEANT CASINO supermarket","name_suffix":"Gibuti, Gibuti","url":"https://travel.sygic.com/go/poi:24722116","duration":3600,"marker":"shopping:supermarket","categories":["shopping"],"parent_ids":["city:1493","region:60346","country:145","continent:2"],"perex":null,"customer_rating":null,"star_rating":null,"star_rating_unofficial":null,"thumbnail_url":null},{"id":"poi:24722286","level":"poi","rating":0.001,"quadkey":"122313322133102301","location":{"lat":11.5918943,"lng":42.8536263},"bounding_box":null,"name":"Beach","name_suffix":"Arta, Gibuti","url":"https://travel.sygic.com/go/poi:24722286","duration":14400,"marker":"relaxing:beach","categories":["relaxing"],"parent_ids":["region:62575","country:145","continent:2"],"perex":null,"customer_rating":null,"star_rating":null,"star_rating_unofficial":null,"thumbnail_url":null},{"id":"poi:24723655","level":"poi","rating":0.001,"quadkey":"122313322311103232","location":{"lat":11.502348,"lng":42.8604635},"bounding_box":null,"name":"mosqueé","name_suffix":"W Weya, Gibuti","url":"https://travel.sygic.com/go/poi:24723655","duration":1800,"marker":"other:place_of_worship:mosque","categories":["sightseeing"],"parent_ids":["region:871661","region:62575","country:145","continent:2"],"perex":null,"customer_rating":null,"star_rating":null,"star_rating_unofficial":null,"thumbnail_url":null},{"id":"poi:24726399","level":"poi","rating":0.001,"quadkey":"122313323032211331","location":{"lat":11.5570417,"lng":43.1098198},"bounding_box":null,"name":"Mosquée Ali Dherer","name_suffix":"Gibuti, Gibuti","url":"https://travel.sygic.com/go/poi:24726399","duration":1800,"marker":"other:place_of_worship","categories":[],"parent_ids":["city:1773797","city:1493","region:60346","country:145","continent:2"],"perex":null,"customer_rating":null,"star_rating":null,"star_rating_unofficial":null,"thumbnail_url":null},{"id":"poi:24699136","level":"poi","rating":0.001,"quadkey":"122313323032300021","location":{"lat":11.5621883,"lng":43.1129728},"bounding_box":null,"name":"batiment de pompier","name_suffix":"Gibuti, Gibuti","url":"https://travel.sygic.com/go/poi:24699136","duration":3600,"marker":"other:emergency:fire","categories":[],"parent_ids":["city:1773797","city:1493","region:60346","country:145","continent:2"],"perex":null,"customer_rating":null,"star_rating":null,"star_rating_unofficial":null,"thumbnail_url":null},{"id":"poi:11375876","level":"poi","rating":0.001,"quadkey":"122313322033031113","location":{"lat":11.5856337,"lng":42.4949022},"bounding_box":null,"name":"Panorama","name_suffix":"Tadjourah Region, Gibuti","url":"https://travel.sygic.com/go/poi:11375876","duration":900,"marker":"hiking:viewpoint","categories":[],"parent_ids":["region:61757","region:59260","country:145","continent:2"],"perex":null,"customer_rating":null,"star_rating":null,"star_rating_unofficial":null,"thumbnail_url":null},{"id":"poi:7700287","level":"poi","rating":0.001,"quadkey":"122313323032212012","location":{"lat":11.5535276,"lng":43.0919748},"bounding_box":null,"name":"Running","name_suffix":"Djibouti, Gibuti","url":"https://travel.sygic.com/go/poi:7700287","duration":7200,"marker":"sports:athletics:running","categories":["doing_sports"],"parent_ids":["region:60346","country:145","continent:2"],"perex":null,"customer_rating":null,"star_rating":null,"star_rating_unofficial":null,"thumbnail_url":null},{"id":"poi:16312061","level":"poi","rating":0.001,"quadkey":"122313320211212233","location":{"lat":12.1472468,"lng":42.478635},"bounding_box":null,"name":"Barrage de Dorra alsd drt","name_suffix":"Dorra, Gibuti","url":"https://travel.sygic.com/go/poi:16312061","duration":3600,"marker":"other:water:dam","categories":[],"parent_ids":["city:431365","region:61647","region:59260","country:145","continent:2"],"perex":null,"customer_rating":null,"star_rating":null,"star_rating_unofficial":null,"thumbnail_url":null},{"id":"poi:7583055","level":"poi","rating":0.001,"quadkey":"122313323032112313","location":{"lat":11.5910449,"lng":43.1432771},"bounding_box":null,"name":"Swimming Pool","name_suffix":"Gibuti, Gibuti","url":"https://travel.sygic.com/go/poi:7583055","duration":7200,"marker":"sports:pool:swimming","categories":["doing_sports"],"parent_ids":["city:1493","region:60346","country:145","continent:2"],"perex":null,"customer_rating":null,"star_rating":null,"star_rating_unofficial":null,"thumbnail_url":null},{"id":"poi:9615021","level":"poi","rating":0.001,"quadkey":"122313323032113031","location":{"lat":11.5949413,"lng":43.1474524},"bounding_box":null,"name":"Saba Bank bnk saba","name_suffix":"Gibuti, Gibuti","url":"https://travel.sygic.com/go/poi:9615021","duration":900,"marker":"other:bank","categories":[],"parent_ids":["city:1493","region:60346","country:145","continent:2"],"perex":null,"customer_rating":null,"star_rating":null,"star_rating_unofficial":null,"thumbnail_url":null},{"id":"poi:10535422","level":"poi","rating":0.001,"quadkey":"122313323033023223","location":{"lat":11.5664404,"lng":43.1669174},"bounding_box":null,"name":"Consulate of the United Kingdom qnslyt almmlkt almthdt","name_suffix":"Gibuti, Gibuti","url":"https://travel.sygic.com/go/poi:10535422","duration":3600,"marker":"other:building:embassy","categories":[],"parent_ids":["city:1493","region:60346","country:145","continent:2"],"perex":null,"customer_rating":null,"star_rating":null,"star_rating_unofficial":null,"thumbnail_url":null},{"id":"poi:10538560","level":"poi","rating":0.001,"quadkey":"122313323032133130","location":{"lat":11.5731486,"lng":43.1520149},"bounding_box":null,"name":"Toyota Marill twywta maryl","name_suffix":"Gibuti, Gibuti","url":"https://travel.sygic.com/go/poi:10538560","duration":3600,"marker":"traveling:car:repair","categories":["shopping","traveling"],"parent_ids":["city:1493","region:60346","country:145","continent:2"],"perex":null,"customer_rating":null,"star_rating":null,"star_rating_unofficial":null,"thumbnail_url":null},{"id":"poi:10512666","level":"poi","rating":0.001,"quadkey":"122313323032113010","location":{"lat":11.5981286,"lng":43.1466588},"bounding_box":null,"name":"Cite Ministerielle mdynt alwzary","name_suffix":"Gibuti, Gibuti","url":"https://travel.sygic.com/go/poi:10512666","duration":900,"marker":"sightseeing:town_hall:city_hall","categories":[],"parent_ids":["city:1493","region:60346","country:145","continent:2"],"perex":null,"customer_rating":null,"star_rating":null,"star_rating_unofficial":null,"thumbnail_url":null},{"id":"poi:7422655","level":"poi","rating":0.001,"quadkey":"122313323030333303","location":{"lat":11.6123966,"lng":43.1505905},"bounding_box":null,"name":"Swimming Pool","name_suffix":"Gibuti, Gibuti","url":"https://travel.sygic.com/go/poi:7422655","duration":7200,"marker":"sports:pool:swimming","categories":["doing_sports"],"parent_ids":["city:1493","region:60346","country:145","continent:2"],"perex":null,"customer_rating":null,"star_rating":null,"star_rating_unofficial":null,"thumbnail_url":null},{"id":"poi:7745237","level":"poi","rating":0.001,"quadkey":"122313323013300231","location":{"lat":11.7295614,"lng":43.2030453},"bounding_box":null,"name":"Beach","name_suffix":"Gibuti","url":"https://travel.sygic.com/go/poi:7745237","duration":14400,"marker":"relaxing:beach","categories":["relaxing"],"parent_ids":["country:145","continent:2"],"perex":null,"customer_rating":null,"star_rating":null,"star_rating_unofficial":null,"thumbnail_url":null},{"id":"poi:7536210","level":"poi","rating":0.001,"quadkey":"122313323032132112","location":{"lat":11.5750429,"lng":43.141425},"bounding_box":null,"name":"Msjd","name_suffix":"Gibuti, Gibuti","url":"https://travel.sygic.com/go/poi:7536210","duration":1800,"marker":"other:place_of_worship","categories":[],"parent_ids":["city:1493","region:60346","country:145","continent:2"],"perex":null,"customer_rating":null,"star_rating":null,"star_rating_unofficial":null,"thumbnail_url":null},{"id":"poi:7419665","level":"poi","rating":0.001,"quadkey":"122313323033000032","location":{"lat":11.6041066,"lng":43.1570541},"bounding_box":null,"name":"Swimming Pool","name_suffix":"Gibuti, Gibuti","url":"https://travel.sygic.com/go/poi:7419665","duration":7200,"marker":"sports:pool:swimming","categories":["doing_sports"],"parent_ids":["city:1493","region:60346","country:145","continent:2"],"perex":null,"customer_rating":null,"star_rating":null,"star_rating_unofficial":null,"thumbnail_url":null},{"id":"poi:7529363","level":"poi","rating":0.001,"quadkey":"122313323032131300","location":{"lat":11.5820284,"lng":43.1488166},"bounding_box":null,"name":"Place of Worship","name_suffix":"Gibuti, Gibuti","url":"https://travel.sygic.com/go/poi:7529363","duration":1800,"marker":"other:place_of_worship","categories":[],"parent_ids":["city:1493","region:60346","country:145","continent:2"],"perex":null,"customer_rating":null,"star_rating":null,"star_rating_unofficial":null,"thumbnail_url":null},{"id":"poi:6852421","level":"poi","rating":0.001,"quadkey":"122313323032112313","location":{"lat":11.5905593,"lng":43.142931},"bounding_box":null,"name":"Theatre des Salines almsrh almalht","name_suffix":"Gibuti, Gibuti","url":"https://travel.sygic.com/go/poi:6852421","duration":10800,"marker":"discovering:theatre","categories":["going_out"],"parent_ids":["city:1493","region:60346","country:145","continent:2"],"perex":null,"customer_rating":null,"star_rating":null,"star_rating_unofficial":null,"thumbnail_url":null},{"id":"poi:6562010","level":"poi","rating":0.001,"quadkey":"122313323013220021","location":{"lat":11.714048,"lng":43.1568334},"bounding_box":null,"name":"Beach","name_suffix":"Gibuti","url":"https://travel.sygic.com/go/poi:6562010","duration":14400,"marker":"relaxing:beach","categories":["relaxing"],"parent_ids":["country:145","continent:2"],"perex":null,"customer_rating":null,"star_rating":null,"star_rating_unofficial":null,"thumbnail_url":null},{"id":"poi:6564393","level":"poi","rating":0.001,"quadkey":"122313323012331123","location":{"lat":11.7123643,"lng":43.1513332},"bounding_box":null,"name":"Beach","name_suffix":"Gibuti","url":"https://travel.sygic.com/go/poi:6564393","duration":14400,"marker":"relaxing:beach","categories":["relaxing"],"parent_ids":["country:145","continent:2"],"perex":null,"customer_rating":null,"star_rating":null,"star_rating_unofficial":null,"thumbnail_url":null},{"id":"poi:11370741","level":"poi","rating":0.001,"quadkey":"122313322122220220","location":{"lat":11.5362304,"lng":42.5397904},"bounding_box":null,"name":"Ghny kma Guinni Koma","name_suffix":"Gibuti","url":"https://travel.sygic.com/go/poi:11370741","duration":3600,"marker":"hiking:volcano","categories":["hiking"],"parent_ids":["country:145","continent:2"],"perex":null,"customer_rating":null,"star_rating":null,"star_rating_unofficial":null,"thumbnail_url":null},{"id":"poi:13531495","level":"poi","rating":0.001,"quadkey":"122313323033000210","location":{"lat":11.6028151,"lng":43.1579962},"bounding_box":null,"name":"Aden Bay Casino","name_suffix":"Gibuti, Gibuti","url":"https://travel.sygic.com/go/poi:13531495","duration":3600,"marker":"going_out:casino","categories":["going_out"],"parent_ids":["city:1493","region:60346","country:145","continent:2"],"perex":null,"customer_rating":null,"star_rating":null,"star_rating_unofficial":null,"thumbnail_url":null},{"id":"poi:12699233","level":"poi","rating":0.001,"quadkey":"122313323032113320","location":{"lat":11.5897115,"lng":43.1494525},