{"status_code":200,"data":{"places":[{"id":"poi:51849","level":"poi","rating":0.0047412211618642,"quadkey":"300130221301312111","location":{"lat":-15.6768837,"lng":34.968805},"bounding_box":null,"name":"Chileka International Airport","name_suffix":"Southern Region, Malawi","url":"https://travel.sygic.com/go/poi:51849","duration":7200,"marker":"traveling:airport","categories":["traveling"],"parent_ids":["region:53654","country:132","continent:2"],"perex":null,"customer_rating":null,"star_rating":null,"star_rating_unofficial":null,"thumbnail_url":null},{"id":"poi:5175051","level":"poi","rating":0.003,"quadkey":"300130020033223210","location":{"lat":-12.8926027,"lng":34.0278777},"bounding_box":null,"name":"Nkhotakota Game Reserve","name_suffix":"Central Region, Malawi","url":"https://travel.sygic.com/go/poi:5175051","duration":21600,"marker":"hiking:park:national","categories":["relaxing","hiking"],"parent_ids":["region:1927431","region:53536","country:132","continent:2"],"perex":"Nkhotakota Game Reserve is a national game reserve in Malawi. It is located at Nkhotakota.","customer_rating":null,"star_rating":null,"star_rating_unofficial":null,"thumbnail_url":null},{"id":"poi:20087705","level":"poi","rating":0.003,"quadkey":"300112222002000131","location":{"lat":-10.5770034,"lng":33.7608769},"bounding_box":null,"name":"Kaulime-See","name_suffix":"Northern Region, Malawi","url":"https://travel.sygic.com/go/poi:20087705","duration":3600,"marker":"default","categories":[],"parent_ids":["region:1967968","region:2014025","region:53555","country:132","continent:2"],"perex":"Der Kaulime-See ist der einzige auf natürliche Weise entstandene See im Nyika-Nationalpark im Norden von Malawi.","customer_rating":null,"star_rating":null,"star_rating_unofficial":null,"thumbnail_url":null},{"id":"poi:11000010","level":"poi","rating":0.003,"quadkey":"300130200000211200","location":{"lat":-13.9722565,"lng":33.7838199},"bounding_box":null,"name":"Lilongwe Wildlife Center","name_suffix":"Lilongwe, Malawi","url":"https://travel.sygic.com/go/poi:11000010","duration":14400,"marker":"discovering:zoo","categories":["discovering"],"parent_ids":["city:1306","region:2013899","region:53536","country:132","continent:2"],"perex":"The Lilongwe Wildlife Centre is a wildlife sanctuary in Lilongwe, Malawi.","customer_rating":null,"star_rating":null,"star_rating_unofficial":null,"thumbnail_url":null},{"id":"poi:16586196","level":"poi","rating":0.003,"quadkey":"300130201000323111","location":{"lat":-13.9980823,"lng":34.5178},"bounding_box":null,"name":"Chipoka","name_suffix":"Chipoka, Malawi","url":"https://travel.sygic.com/go/poi:16586196","duration":3600,"marker":"other:school","categories":[],"parent_ids":["city:398761","region:2017059","region:53536","country:132","continent:2"],"perex":"Chipoka ist eine kleine Hafenstadt im afrikanischen Staat Malawi, die am Malawisee liegt.","customer_rating":null,"star_rating":null,"star_rating_unofficial":null,"thumbnail_url":null},{"id":"poi:20032463","level":"poi","rating":0.003,"quadkey":"300130212001022302","location":{"lat":-14.644042,"lng":35.2499821},"bounding_box":null,"name":"Malombesee","name_suffix":"Southern Region, Malawi","url":"https://travel.sygic.com/go/poi:20032463","duration":3600,"marker":"default","categories":[],"parent_ids":["region:2014026","region:53654","country:132","continent:2"],"perex":"Der Malombesee ist der drittgrößte See in Malawi.","customer_rating":null,"star_rating":null,"star_rating_unofficial":null,"thumbnail_url":null},{"id":"poi:8356076","level":"poi","rating":0.003,"quadkey":"300130221233013223","location":{"lat":-15.8972849,"lng":34.7521736},"bounding_box":null,"name":"Kapichira-Wasserfälle","name_suffix":"Southern Region, Malawi","url":"https://travel.sygic.com/go/poi:8356076","duration":3600,"marker":"sightseeing","categories":["sightseeing"],"parent_ids":["region:1968044","region:2013998","region:53654","country:132","continent:2"],"perex":"Die Kapichira-Wasserfälle des Shire-Flusses im afrikanischen Malawi sind vor allem in der Regenzeit spektakulär, wenn zwischen den…","customer_rating":null,"star_rating":null,"star_rating_unofficial":null,"thumbnail_url":"https://media-cdn.sygictraveldata.com/media/poi:8356076"},{"id":"poi:19991047","level":"poi","rating":0.003,"quadkey":"300130212332232123","location":{"lat":-15.2787769,"lng":35.7126376},"bounding_box":null,"name":"Chilwa-See","name_suffix":"Southern Region, Malawi","url":"https://travel.sygic.com/go/poi:19991047","duration":3600,"marker":"default","categories":[],"parent_ids":["region:2013906","region:53654","country:132","continent:2"],"perex":"Der Chilwa-See liegt im Südosten Malawis an der Grenze zu Mosambik.","customer_rating":null,"star_rating":null,"star_rating_unofficial":null,"thumbnail_url":"https://media-cdn.sygictraveldata.com/media/poi:19991047"},{"id":"poi:11310192","level":"poi","rating":0.0023406023773349,"quadkey":"300130212200333322","location":{"lat":-15.0285683,"lng":35.2397163},"bounding_box":null,"name":"Liwonde Safari Camp","name_suffix":"Southern Region, Malawi","url":"https://travel.sygic.com/go/poi:11310192","duration":3600,"marker":"sleeping:hotel","categories":["sleeping"],"parent_ids":["region:1940223","region:53654","country:132","continent:2"],"perex":null,"customer_rating":null,"star_rating":null,"star_rating_unofficial":null,"thumbnail_url":null},{"id":"poi:11453109","level":"poi","rating":0.002,"quadkey":"300130223112131323","location":{"lat":-16.0764759,"lng":35.0642451},"bounding_box":null,"name":"Chawani Bungalow","name_suffix":"Southern Region, Malawi","url":"https://travel.sygic.com/go/poi:11453109","duration":3600,"marker":"sleeping:hotel","categories":["sleeping"],"parent_ids":["region:53654","country:132","continent:2"],"perex":null,"customer_rating":null,"star_rating":null,"star_rating_unofficial":null,"thumbnail_url":null},{"id":"poi:11819283","level":"poi","rating":0.002,"quadkey":"300130200000033033","location":{"lat":-13.9600071,"lng":33.78812},"bounding_box":null,"name":"Botschaft der Bundesrepublik Deutschland","name_suffix":"Lilongwe, Malawi","url":"https://travel.sygic.com/go/poi:11819283","duration":3600,"marker":"other:building:embassy","categories":[],"parent_ids":["city:1306","region:53536","country:132","continent:2"],"perex":null,"customer_rating":null,"star_rating":null,"star_rating_unofficial":null,"thumbnail_url":null},{"id":"poi:11928713","level":"poi","rating":0.002,"quadkey":"300130200001002032","location":{"lat":-13.9388259,"lng":33.8407518},"bounding_box":null,"name":"Kumbali Village","name_suffix":"Central Region, Malawi","url":"https://travel.sygic.com/go/poi:11928713","duration":3600,"marker":"eating:cafe","categories":["eating"],"parent_ids":["region:53536","country:132","continent:2"],"perex":null,"customer_rating":null,"star_rating":null,"star_rating_unofficial":null,"thumbnail_url":null},{"id":"poi:9234303","level":"poi","rating":0.002,"quadkey":"300130232100202311","location":{"lat":-16.0199416,"lng":35.5187431},"bounding_box":null,"name":"Kara O'Mula Country Lodge","name_suffix":"Southern Region, Malawi","url":"https://travel.sygic.com/go/poi:9234303","duration":3600,"marker":"sleeping:hotel","categories":["sleeping"],"parent_ids":["region:53654","country:132","continent:2"],"perex":null,"customer_rating":null,"star_rating":null,"star_rating_unofficial":null,"thumbnail_url":null},{"id":"poi:21899797","level":"poi","rating":0.002,"quadkey":"300121311111113133","location":{"lat":-13.9387691,"lng":33.7489294},"bounding_box":null,"name":"Agape Life Church International (IWC)","name_suffix":"Lilongwe, Malawi","url":"https://travel.sygic.com/go/poi:21899797","duration":1800,"marker":"other:place_of_worship","categories":[],"parent_ids":["city:1306","region:2013899","region:53536","country:132","continent:2"],"perex":null,"customer_rating":null,"star_rating":null,"star_rating_unofficial":null,"thumbnail_url":null},{"id":"poi:20948955","level":"poi","rating":0.002,"quadkey":"300130000033010120","location":{"lat":-11.4407558,"lng":34.042483},"bounding_box":null,"name":"Mocondo Camp","name_suffix":"Mzuzu, Malawi","url":"https://travel.sygic.com/go/poi:20948955","duration":3600,"marker":"sleeping:apartment:guest_accommodation","categories":["sleeping"],"parent_ids":["city:1309","region:2013933","region:53555","country:132","continent:2"],"perex":null,"customer_rating":null,"star_rating":null,"star_rating_unofficial":null,"thumbnail_url":null},{"id":"poi:11837243","level":"poi","rating":0.002,"quadkey":"300130200000033031","location":{"lat":-13.9581428,"lng":33.7875562},"bounding_box":null,"name":"Hochkommissariat des Vereinigten Königreiches Großbritannien und Nordirland","name_suffix":"Lilongwe, Malawi","url":"https://travel.sygic.com/go/poi:11837243","duration":3600,"marker":"other:building:embassy","categories":[],"parent_ids":["city:1306","region:53536","country:132","continent:2"],"perex":null,"customer_rating":null,"star_rating":null,"star_rating_unofficial":null,"thumbnail_url":null},{"id":"poi:8698524","level":"poi","rating":0.002,"quadkey":"300130230012002233","location":{"lat":-15.3892495,"lng":35.3372267},"bounding_box":null,"name":"University of Malawi - Chancellor College Campus","name_suffix":"Zomba, Malawi","url":"https://travel.sygic.com/go/poi:8698524","duration":2700,"marker":"discovering:university","categories":[],"parent_ids":["city:8923","region:2013906","region:53654","country:132","continent:2"],"perex":null,"customer_rating":null,"star_rating":null,"star_rating_unofficial":null,"thumbnail_url":null},{"id":"poi:13121250","level":"poi","rating":0.002,"quadkey":"300130023221130131","location":{"lat":-13.7769817,"lng":34.6169321},"bounding_box":null,"name":"Red Zebra Lodge, Kambiri Point","name_suffix":"Central Region, Malawi","url":"https://travel.sygic.com/go/poi:13121250","duration":3600,"marker":"sleeping:apartment:guest_accommodation","categories":["sleeping"],"parent_ids":["region:53536","country:132","continent:2"],"perex":null,"customer_rating":null,"star_rating":null,"star_rating_unofficial":null,"thumbnail_url":null},{"id":"poi:9339293","level":"poi","rating":0.002,"quadkey":"300130221330131212","location":{"lat":-15.8204063,"lng":35.0601821},"bounding_box":null,"name":"Petroda","name_suffix":"Limbe, Malawi","url":"https://travel.sygic.com/go/poi:9339293","duration":1800,"marker":"traveling:fuel:gas_station","categories":["traveling"],"parent_ids":["city:383972","region:2014005","region:53654","country:132","continent:2"],"perex":null,"customer_rating":null,"star_rating":null,"star_rating_unofficial":null,"thumbnail_url":null},{"id":"poi:17131341","level":"poi","rating":0.002,"quadkey":"300130201102012331","location":{"lat":-14.0279996,"lng":34.8365201},"bounding_box":null,"name":"Chembe Water Project - Eileen & Keen","name_suffix":"Southern Region, Malawi","url":"https://travel.sygic.com/go/poi:17131341","duration":3600,"marker":"other:drinking_water","categories":[],"parent_ids":["region:2014026","region:53654","country:132","continent:2"],"perex":null,"customer_rating":null,"star_rating":null,"star_rating_unofficial":null,"thumbnail_url":null},{"id":"poi:12522182","level":"poi","rating":0.002,"quadkey":"300130200000203123","location":{"lat":-13.9817974,"lng":33.7685132},"bounding_box":null,"name":"mHub","name_suffix":"Lilongwe, Malawi","url":"https://travel.sygic.com/go/poi:12522182","duration":3600,"marker":"going_out:community_centre","categories":[],"parent_ids":["city:1306","region:53536","country:132","continent:2"],"perex":null,"customer_rating":null,"star_rating":null,"star_rating_unofficial":null,"thumbnail_url":null},{"id":"poi:11828587","level":"poi","rating":0.002,"quadkey":"300130000310232223","location":{"lat":-11.6084708,"lng":34.3007063},"bounding_box":null,"name":"Aqua Africa","name_suffix":"Nkhata Bay, Malawi","url":"https://travel.sygic.com/go/poi:11828587","duration":3600,"marker":"sleeping:hotel","categories":["sleeping"],"parent_ids":["city:428971","region:53555","country:132","continent:2"],"perex":null,"customer_rating":null,"star_rating":null,"star_rating_unofficial":null,"thumbnail_url":null},{"id":"poi:13459803","level":"poi","rating":0.002,"quadkey":"300130200000203210","location":{"lat":-13.9832571,"lng":33.7643204},"bounding_box":null,"name":"Crown Hotel","name_suffix":"Lilongwe, Malawi","url":"https://travel.sygic.com/go/poi:13459803","duration":3600,"marker":"sleeping:hotel","categories":["sleeping"],"parent_ids":["city:1306","region:53536","country:132","continent:2"],"perex":null,"customer_rating":null,"star_rating":null,"star_rating_unofficial":null,"thumbnail_url":null},{"id":"poi:20459240","level":"poi","rating":0.002,"quadkey":"300130000033010121","location":{"lat":-11.4409312,"lng":34.0427297},"bounding_box":null,"name":"Macondo camp","name_suffix":"Mzuzu, Malawi","url":"https://travel.sygic.com/go/poi:20459240","duration":3600,"marker":"sleeping:hotel","categories":["sleeping"],"parent_ids":["city:1309","region:2013933","region:53555","country:132","continent:2"],"perex":null,"customer_rating":null,"star_rating":null,"star_rating_unofficial":null,"thumbnail_url":null},{"id":"poi:18319522","level":"poi","rating":0.002,"quadkey":"300130000033002200","location":{"lat":-11.4533399,"lng":34.0143866},"bounding_box":null,"name":"Mphatso Motel","name_suffix":"Mzuzu, Malawi","url":"https://travel.sygic.com/go/poi:18319522","duration":3600,"marker":"sleeping:hotel:motel","categories":["sleeping"],"parent_ids":["city:1309","region:53555","country:132","continent:2"],"perex":null,"customer_rating":null,"star_rating":null,"star_rating_unofficial":null,"thumbnail_url":null},{"id":"poi:22104441","level":"poi","rating":0.002,"quadkey":"300130230012002231","location":{"lat":-15.3878203,"lng":35.3363002},"bounding_box":null,"name":"University of Malawi - Chancellor College Campus","name_suffix":"Zomba, Malawi","url":"https://travel.sygic.com/go/poi:22104441","duration":2700,"marker":"discovering:university","categories":[],"parent_ids":["city:8923","region:2013906","region:53654","country:132","continent:2"],"perex":null,"customer_rating":null,"star_rating":null,"star_rating_unofficial":null,"thumbnail_url":null},{"id":"poi:13343247","level":"poi","rating":0.002,"quadkey":"300130221330001121","location":{"lat":-15.7958702,"lng":34.9993548},"bounding_box":null,"name":"Pedros Lodge","name_suffix":"Blantyre, Malawi","url":"https://travel.sygic.com/go/poi:13343247","duration":3600,"marker":"sleeping:hostel","categories":["sleeping"],"parent_ids":["city:1303","region:53654","country:132","continent:2"],"perex":null,"customer_rating":null,"star_rating":null,"star_rating_unofficial":null,"thumbnail_url":null},{"id":"poi:19713033","level":"poi","rating":0.002,"quadkey":"300130200002213311","location":{"lat":-14.0674239,"lng":33.7938067},"bounding_box":null,"name":"Pangapanga Residence-Off Bunda Road","name_suffix":"Central Region, Malawi","url":"https://travel.sygic.com/go/poi:19713033","duration":3600,"marker":"sleeping:apartment:guest_accommodation","categories":["sleeping"],"parent_ids":["region:53536","country:132","continent:2"],"perex":null,"customer_rating":null,"star_rating":null,"star_rating_unofficial":null,"thumbnail_url":null},{"id":"poi:9683221","level":"poi","rating":0.002,"quadkey":"300130230003113202","location":{"lat":-15.3872433,"lng":35.321227},"bounding_box":null,"name":"Spar Lodge","name_suffix":"Zomba, Malawi","url":"https://travel.sygic.com/go/poi:9683221","duration":3600,"marker":"sleeping:hotel","categories":["sleeping"],"parent_ids":["city:8923","region:53654","country:132","continent:2"],"perex":null,"customer_rating":null,"star_rating":null,"star_rating_unofficial":null,"thumbnail_url":null},{"id":"poi:11779580","level":"poi","rating":0.002,"quadkey":"300130223312232110","location":{"lat":-16.4577237,"lng":35.0107068},"bounding_box":null,"name":"Cafe","name_suffix":"Chokwe, Malawi","url":"https://travel.sygic.com/go/poi:11779580","duration":3600,"marker":"eating:cafe","categories":["eating"],"parent_ids":["region:1624720","region:53654","country:132","continent:2"],"perex":null,"customer_rating":null,"star_rating":null,"star_rating_unofficial":null,"thumbnail_url":null},{"id":"poi:12232488","level":"poi","rating":0.002,"quadkey":"300130200000202132","location":{"lat":-13.9820175,"lng":33.7584931},"bounding_box":null,"name":"Cluny Lodge","name_suffix":"Lilongwe, Malawi","url":"https://travel.sygic.com/go/poi:12232488","duration":3600,"marker":"sleeping:apartment:guest_accommodation","categories":["sleeping"],"parent_ids":["city:1306","region:53536","country:132","continent:2"],"perex":null,"customer_rating":null,"star_rating":null,"star_rating_unofficial":null,"thumbnail_url":null},{"id":"poi:16969044","level":"poi","rating":0.002,"quadkey":"300130221330010301","location":{"lat":-15.7984622,"lng":35.0098931},"bounding_box":null,"name":"Atmosphere","name_suffix":"Blantyre, Malawi","url":"https://travel.sygic.com/go/poi:16969044","duration":3600,"marker":"eating:restaurant:regional","categories":["eating"],"parent_ids":["city:1303","region:53654","country:132","continent:2"],"perex":null,"customer_rating":null,"star_rating":null,"star_rating_unofficial":null,"thumbnail_url":null},{"id":"poi:16809837","level":"poi","rating":0.002,"quadkey":"300130230233312333","location":{"lat":-15.9396075,"lng":35.4968055},"bounding_box":null,"name":"Likhubula Hikers Nest","name_suffix":"Southern Region, Malawi","url":"https://travel.sygic.com/go/poi:16809837","duration":3600,"marker":"sleeping:hotel","categories":["sleeping"],"parent_ids":["region:53654","country:132","continent:2"],"perex":null,"customer_rating":null,"star_rating":null,"star_rating_unofficial":null,"thumbnail_url":null},{"id":"poi:16429803","level":"poi","rating":0.002,"quadkey":"300112222323011223","location":{"lat":-11.1019063,"lng":34.2250787},"bounding_box":null,"name":"Zulunkhuni River Lodge","name_suffix":"Northern Region, Malawi","url":"https://travel.sygic.com/go/poi:16429803","duration":3600,"marker":"sleeping:apartment:guest_accommodation","categories":["sleeping"],"parent_ids":["region:53555","country:132","continent:2"],"perex":null,"customer_rating":null,"star_rating":null,"star_rating_unofficial":null,"thumbnail_url":null},{"id":"poi:11325571","level":"poi","rating":0.002,"quadkey":"300130022222233122","location":{"lat":-13.9171863,"lng":33.7891636},"bounding_box":null,"name":"Guidance Councelling and Youth Development Centre for Africa","name_suffix":"Central Region, Malawi","url":"https://travel.sygic.com/go/poi:11325571","duration":2700,"marker":"discovering:university","categories":[],"parent_ids":["region:53536","country:132","continent:2"],"perex":null,"customer_rating":null,"star_rating":null,"star_rating_unofficial":null,"thumbnail_url":null},{"id":"poi:20522509","level":"poi","rating":0.002,"quadkey":"300130201102013120","location":{"lat":-14.0229616,"lng":34.8433762},"bounding_box":null,"name":"Jefferson Paper Factory","name_suffix":"Chembe, Malawi","url":"https://travel.sygic.com/go/poi:20522509","duration":3600,"marker":"default","categories":[],"parent_ids":["region:511962","region:2014026","region:53654","country:132","continent:2"],"perex":null,"customer_rating":null,"star_rating":null,"star_rating_unofficial":null,"thumbnail_url":null},{"id":"poi:12074123","level":"poi","rating":0.002,"quadkey":"300112220211331211","location":{"lat":-10.2127467,"lng":34.0957506},"bounding_box":null,"name":"FloJa Foundation Camping","name_suffix":"Northern Region, Malawi","url":"https://travel.sygic.com/go/poi:12074123","duration":3600,"marker":"sleeping:camp_site","categories":["sleeping","hiking"],"parent_ids":["region:53555","country:132","continent:2"],"perex":null,"customer_rating":null,"star_rating":null,"star_rating_unofficial":null,"thumbnail_url":null},{"id":"poi:11337659","level":"poi","rating":0.002,"quadkey":"300130200000300210","location":{"lat":-13.9722973,"lng":33.7979678},"bounding_box":null,"name":"Heko Technologies","name_suffix":"Lilongwe, Malawi","url":"https://travel.sygic.com/go/poi:11337659","duration":3600,"marker":"shopping:electronics","categories":["shopping"],"parent_ids":["city:1306","region:53536","country:132","continent:2"],"perex":null,"customer_rating":null,"star_rating":null,"star_rating_unofficial":null,"thumbnail_url":null},{"id":"poi:13122402","level":"poi","rating":0.002,"quadkey":"300130023221130112","location":{"lat":-13.7766716,"lng":34.6165086},"bounding_box":null,"name":"Red Zebra Restaurant","name_suffix":"Central Region, Malawi","url":"https://travel.sygic.com/go/poi:13122402","duration":3600,"marker":"eating:restaurant:regional","categories":["eating"],"parent_ids":["region:53536","country:132","continent:2"],"perex":null,"customer_rating":null,"star_rating":null,"star_rating_unofficial":null,"thumbnail_url":null},{"id":"poi:13406971","level":"poi","rating":0.002,"quadkey":"300130000033020020","location":{"lat":-11.4615067,"lng":34.0144695},"bounding_box":null,"name":"Shoprite shoping mall","name_suffix":"Mzuzu, Malawi","url":"https://travel.sygic.com/go/poi:13406971","duration":3600,"marker":"shopping:supermarket","categories":["shopping"],"parent_ids":["city:1309","region:53555","country:132","continent:2"],"perex":null,"customer_rating":null,"star_rating":null,"star_rating_unofficial":null,"thumbnail_url":null},{"id":"poi:6433666","level":"poi","rating":0.002,"quadkey":"300130002100223322","location":{"lat":-11.9533433,"lng":34.1182791},"bounding_box":null,"name":"Mbamba Beach Lodge","name_suffix":"Northern Region, Malawi","url":"https://travel.sygic.com/go/poi:6433666","duration":3600,"marker":"sleeping:hotel","categories":["sleeping"],"parent_ids":["region:53555","country:132","continent:2"],"perex":null,"customer_rating":null,"star_rating":null,"star_rating_unofficial":null,"thumbnail_url":null},{"id":"poi:21895756","level":"poi","rating":0.002,"quadkey":"300121311111113311","location":{"lat":-13.939436,"lng":33.7490477},"bounding_box":null,"name":"Cavary","name_suffix":"Lilongwe, Malawi","url":"https://travel.sygic.com/go/poi:21895756","duration":1800,"marker":"other:place_of_worship","categories":[],"parent_ids":["city:1306","region:2013899","region:53536","country:132","continent:2"],"perex":null,"customer_rating":null,"star_rating":null,"star_rating_unofficial":null,"thumbnail_url":null},{"id":"poi:20556990","level":"poi","rating":0.002,"quadkey":"300130000312010021","location":{"lat":-11.6125782,"lng":34.3008475},"bounding_box":null,"name":"One Love","name_suffix":"Nkhata Bay, Malawi","url":"https://travel.sygic.com/go/poi:20556990","duration":3600,"marker":"eating:restaurant","categories":["eating"],"parent_ids":["city:428971","region:2017275","region:53555","country:132","continent:2"],"perex":null,"customer_rating":null,"star_rating":null,"star_rating_unofficial":null,"thumbnail_url":null},{"id":"poi:8589350","level":"poi","rating":0.002,"quadkey":"300130200000203323","location":{"lat":-13.9869058,"lng":33.7684773},"bounding_box":null,"name":"Nico Centre","name_suffix":"Lilongwe, Malawi","url":"https://travel.sygic.com/go/poi:8589350","duration":3600,"marker":"shopping:supermarket","categories":["shopping"],"parent_ids":["city:1306","region:53536","country:132","continent:2"],"perex":null,"customer_rating":null,"star_rating":null,"star_rating_unofficial":null,"thumbnail_url":null},{"id":"poi:11605887","level":"poi","rating":0.002,"quadkey":"300130221330310123","location":{"lat":-15.8397182,"lng":35.0541869},"bounding_box":null,"name":"St Pauls CCAP Church","name_suffix":"Limbe, Malawi","url":"https://travel.sygic.com/go/poi:11605887","duration":1800,"marker":"other:place_of_worship","categories":[],"parent_ids":["city:383972","region:53654","country:132","continent:2"],"perex":null,"customer_rating":null,"star_rating":null,"star_rating_unofficial":null,"thumbnail_url":null},{"id":"poi:17588087","level":"poi","rating":0.002,"quadkey":"300130221330100302","location":{"lat":-15.8000775,"lng":35.0303918},"bounding_box":null,"name":"Sanwecka Tech Companions","name_suffix":"Limbe, Malawi","url":"https://travel.sygic.com/go/poi:17588087","duration":3600,"marker":"shopping:electronics","categories":["shopping"],"parent_ids":["city:1303","city:383972","region:53654","country:132","continent:2"],"perex":null,"customer_rating":null,"star_rating":null,"star_rating_unofficial":null,"thumbnail_url":null},{"id":"poi:12062677","level":"poi","rating":0.0014468674591116,"quadkey":"300130221312223133","location":{"lat":-15.7856697,"lng":35.0023131},"bounding_box":null,"name":"New Casablanca","name_suffix":"Blantyre, Malawi","url":"https://travel.sygic.com/go/poi:12062677","duration":7200,"marker":"going_out:bar","categories":["going_out"],"parent_ids":["city:1303","region:53654","country:132","continent:2"],"perex":null,"customer_rating":null,"star_rating":null,"star_rating_unofficial":null,"thumbnail_url":null},{"id":"poi:5268824","level":"poi","rating":0.0010416666666667,"quadkey":"300130201102013031","location":{"lat":-14.0221887,"lng":34.8418277},"bounding_box":null,"name":"Beach","name_suffix":"Southern Region, Malawi","url":"https://travel.sygic.com/go/poi:5268824","duration":14400,"marker":"relaxing:beach","categories":["relaxing"],"parent_ids":["region:2014026","region:53654","country:132","continent:2"],"perex":null,"customer_rating":null,"star_rating":null,"star_rating_unofficial":null,"thumbnail_url":null},{"id":"poi:5151908","level":"poi","rating":0.0010416666666667,"quadkey":"300130002100310313","location":{"lat":-11.9179937,"lng":34.1782477},"bounding_box":null,"name":"Beach","name_suffix":"Northern Region, Malawi","url":"https://travel.sygic.com/go/poi:5151908","duration":14400,"marker":"relaxing:beach","categories":["relaxing"],"parent_ids":["region:2017275","region:53555","country:132","continent:2"],"perex":null,"customer_rating":null,"star_rating":null,"star_rating_unofficial":null,"thumbnail_url":null},{"id":"poi:5268826","level":"poi","rating":0.0010416666666667,"quadkey":"300130002100310311","location":{"lat":-11.9162434,"lng":34.1771789},"bounding_box":null,"name":"Beach","name_suffix":"Northern Region, Malawi","url":"https://travel.sygic.com/go/poi:5268826","duration":14400,"marker":"relaxing:beach","categories":["relaxing"],"parent_ids":["region:2017275","region:53555","country:132","continent:2"],"perex":null,"customer_rating":null,"star_rating":null,"star_rating_unofficial":null,"thumbnail_url":null},{"id":"poi:5266973","level":"poi","rating":0.0010416666666667,"quadkey":"300130023203311313","location":{"lat":-13.717747,"lng":34.628072},"bounding_box":null,"name":"Beach","name_suffix":"Senga, Malawi","url":"https://travel.sygic.com/go/poi:5266973","duration":14400,"marker":"relaxing:beach","categories":["relaxing"],"parent_ids":["city:390757","region:2017059","region:53536","country:132","continent:2"],"perex":null,"customer_rating":null,"star_rating":null,"star_rating_unofficial":null,"thumbnail_url":null},{"id":"poi:5267876","level":"poi","rating":0.0010416666666667,"quadkey":"300130002100121313","location":{"lat":-11.895772,"lng":34.1674304},"bounding_box":null,"name":"Beach","name_suffix":"Northern Region, Malawi","url":"https://travel.sygic.com/go/poi:5267876","duration":14400,"marker":"relaxing:beach","categories":["relaxing"],"parent_ids":["region:2017275","region:53555","country:132","continent:2"],"perex":null,"customer_rating":null,"star_rating":null,"star_rating_unofficial":null,"thumbnail_url":null},{"id":"poi:7475353","level":"poi","rating":0.0010416666666667,"quadkey":"300130020312302322","location":{"lat":-13.0466994,"lng":34.3274939},"bounding_box":null,"name":"Beach","name_suffix":"Central Region, Malawi","url":"https://travel.sygic.com/go/poi:7475353","duration":14400,"marker":"relaxing:beach","categories":["relaxing"],"parent_ids":["region:2016922","region:53536","country:132","continent:2"],"perex":null,"customer_rating":null,"star_rating":null,"star_rating_unofficial":null,"thumbnail_url":null},{"id":"poi:6421250","level":"poi","rating":0.0010416666666667,"quadkey":"300130002100223332","location":{"lat":-11.952403,"lng":34.1215059},"bounding_box":null,"name":"Beach","name_suffix":"Northern Region, Malawi","url":"https://travel.sygic.com/go/poi:6421250","duration":14400,"marker":"relaxing:beach","categories":["relaxing"],"parent_ids":["region:2017275","region:53555","country:132","continent:2"],"perex":null,"customer_rating":null,"star_rating":null,"star_rating_unofficial":null,"thumbnail_url":null},{"id":"poi:21445032","level":"poi","rating":0.001,"quadkey":"300130210303002222","location":{"lat":-14.370736,"lng":35.5960735},"bounding_box":null,"name":"Toilets","name_suffix":"Chiponde, Malawi","url":"https://travel.sygic.com/go/poi:21445032","duration":300,"marker":"other:toilets","categories":[],"parent_ids":["region:385805","region:2014026","region:53654","country:132","continent:2"],"perex":null,"customer_rating":null,"star_rating":null,"star_rating_unofficial":null,"thumbnail_url":null},{"id":"poi:20679690","level":"poi","rating":0.001,"quadkey":"300130230201330110","location":{"lat":-15.6869062,"lng":35.318616},"bounding_box":null,"name":"milepa health centre","name_suffix":"Southern Region, Malawi","url":"https://travel.sygic.com/go/poi:20679690","duration":3600,"marker":"other:doctor:hospital","categories":[],"parent_ids":["region:2013970","region:53654","country:132","continent:2"],"perex":null,"customer_rating":null,"star_rating":null,"star_rating_unofficial":null,"thumbnail_url":null},{"id":"poi:20523820","level":"poi","rating":0.001,"quadkey":"300112202221330223","location":{"lat":-9.6978028,"lng":33.9052822},"bounding_box":null,"name":"Mwambande Trading Center","name_suffix":"Northern Region, Malawi","url":"https://travel.sygic.com/go/poi:20523820","duration":3600,"marker":"shopping","categories":["shopping"],"parent_ids":["region:2010561","region:53555","country:132","continent:2"],"perex":null,"customer_rating":null,"star_rating":null,"star_rating_unofficial":null,"thumbnail_url":null},{"id":"poi:21464190","level":"poi","rating":0.001,"quadkey":"300130022222020233","location":{"lat":-13.8688852,"lng":33.754975},"bounding_box":null,"name":"DZenza SDA","name_suffix":"Central Region, Malawi","url":"https://travel.sygic.com/go/poi:21464190","duration":1800,"marker":"other:place_of_worship","categories":[],"parent_ids":["region:2013899","region:53536","country:132","continent:2"],"perex":null,"customer_rating":null,"star_rating":null,"star_rating_unofficial":null,"thumbnail_url":null},{"id":"poi:17199900","level":"poi","rating":0.001,"quadkey":"300130212103222331","location":{"lat":-14.7729957,"lng":35.6061423},"bounding_box":null,"name":"Mpiri Health Centre (Old)","name_suffix":"Southern Region, Malawi","url":"https://travel.sygic.com/go/poi:17199900","duration":3600,"marker":"other:doctor:clinic","categories":[],"parent_ids":["region:53654","country:132","continent:2"],"perex":null,"customer_rating":null,"star_rating":null,"star_rating_unofficial":null,"thumbnail_url":null},{"id":"poi:21404274","level":"poi","rating":0.001,"quadkey":"300130232022020333","location":{"lat":-16.2458106,"lng":35.1659646},"bounding_box":null,"name":"Alpine Hut","name_suffix":"Southern Region, Malawi","url":"https://travel.sygic.com/go/poi:21404274","duration":3600,"marker":"hiking:alpine_hut","categories":["hiking"],"parent_ids":["region:2013948","region:53654","country:132","continent:2"],"perex":null,"customer_rating":null,"star_rating":null,"star_rating_unofficial":null,"thumbnail_url":null},{"id":"poi:21428918","level":"poi","rating":0.001,"quadkey":"300130201102013211","location":{"lat":-14.0253022,"lng":34.8424581},"bounding_box":null,"name":"Place of Worship","name_suffix":"Chembe, Malawi","url":"https://travel.sygic.com/go/poi:21428918","duration":1800,"marker":"other:place_of_worship","categories":[],"parent_ids":["region:511962","region:2014026","region:53654","country:132","continent:2"],"perex":null,"customer_rating":null,"star_rating":null,"star_rating_unofficial":null,"thumbnail_url":null},{"id":"poi:21429562","level":"poi","rating":0.001,"quadkey":"300130210302113223","location":{"lat":-14.3702622,"lng":35.5870623},"bounding_box":null,"name":"Place of Worship","name_suffix":"Southern Region, Malawi","url":"https://travel.sygic.com/go/poi:21429562","duration":1800,"marker":"other:place_of_worship","categories":[],"parent_ids":["region:2014026","region:53654","country:132","continent:2"],"perex":null,"customer_rating":null,"star_rating":null,"star_rating_unofficial":null,"thumbnail_url":null},{"id":"poi:21429714","level":"poi","rating":0.001,"quadkey":"300130210303002232","location":{"lat":-14.3704416,"lng":35.5990397},"bounding_box":null,"name":"Car Repair","name_suffix":"Chiponde, Malawi","url":"https://travel.sygic.com/go/poi:21429714","duration":3600,"marker":"traveling:car:repair","categories":["shopping","traveling"],"parent_ids":["region:385805","region:2014026","region:53654","country:132","continent:2"],"perex":null,"customer_rating":null,"star_rating":null,"star_rating_unofficial":null,"thumbnail_url":null},{"id":"poi:21440798","level":"poi","rating":0.001,"quadkey":"300130210303020011","location":{"lat":-14.371146,"lng":35.6000062},"bounding_box":null,"name":"Chiponde Police Unit","name_suffix":"Chiponde, Malawi","url":"https://travel.sygic.com/go/poi:21440798","duration":3600,"marker":"other:emergency:police","categories":[],"parent_ids":["region:385805","region:2014026","region:53654","country:132","continent:2"],"perex":null,"customer_rating":null,"star_rating":null,"star_rating_unofficial":null,"thumbnail_url":null},{"id":"poi:8592369","level":"poi","rating":0.001,"quadkey":"300130221033103303","location":{"lat":-15.55599,"lng":34.7789559},"bounding_box":null,"name":"Tedzani Falls","name_suffix":"Southern Region, Malawi","url":"https://travel.sygic.com/go/poi:8592369","duration":3600,"marker":"hiking:waterfall","categories":["sightseeing","hiking"],"parent_ids":["region:53654","country:132","continent:2"],"perex":null,"customer_rating":null,"star_rating":null,"star_rating_unofficial":null,"thumbnail_url":null},{"id":"poi:16833251","level":"poi","rating":0.001,"quadkey":"300130212123231030","location":{"lat":-14.9271323,"lng":35.6327136},"bounding_box":null,"name":"Kitchen","name_suffix":"Southern Region, Malawi","url":"https://travel.sygic.com/go/poi:16833251","duration":3600,"marker":"shopping","categories":["shopping"],"parent_ids":["region:53654","country:132","continent:2"],"perex":null,"customer_rating":null,"star_rating":null,"star_rating_unofficial":null,"thumbnail_url":null},{"id":"poi:16834461","level":"poi","rating":0.001,"quadkey":"300130212123231122","location":{"lat":-14.9282234,"lng":35.6343832},"bounding_box":null,"name":"Shower","name_suffix":"Southern Region, Malawi","url":"https://travel.sygic.com/go/poi:16834461","duration":3600,"marker":"other:shower","categories":[],"parent_ids":["region:53654","country:132","continent:2"],"perex":null,"customer_rating":null,"star_rating":null,"star_rating_unofficial":null,"thumbnail_url":null},{"id":"poi:16834537","level":"poi","rating":0.001,"quadkey":"300130212300312111","location":{"lat":-14.9984464,"lng":35.5833477},"bounding_box":null,"name":"Toilets","name_suffix":"Southern Region, Malawi","url":"https://travel.sygic.com/go/poi:16834537","duration":300,"marker":"other:toilets","categories":[],"parent_ids":["region:53654","country:132","continent:2"],"perex":null,"customer_rating":null,"star_rating":null,"star_rating_unofficial":null,"thumbnail_url":null},{"id":"poi:16834559","level":"poi","rating":0.001,"quadkey":"300130212300313003","location":{"lat":-14.9998921,"lng":35.5868211},"bounding_box":null,"name":"Kitchen","name_suffix":"Southern Region, Malawi","url":"https://travel.sygic.com/go/poi:16834559","duration":3600,"marker":"shopping","categories":["shopping"],"parent_ids":["region:53654","country:132","continent:2"],"perex":null,"customer_rating":null,"star_rating":null,"star_rating_unofficial":null,"thumbnail_url":null},{"id":"poi:16834561","level":"poi","rating":0.001,"quadkey":"300130212300312112","location":{"lat":-14.9992988,"lng":35.5823768},"bounding_box":null,"name":"Toilets","name_suffix":"Southern Region, Malawi","url":"https://travel.sygic.com/go/poi:16834561","duration":300,"marker":"other:toilets","categories":[],"parent_ids":["region:53654","country:132","continent:2"],"perex":null,"customer_rating":null,"star_rating":null,"star_rating_unofficial":null,"thumbnail_url":null},{"id":"poi:16834573","level":"poi","rating":0.001,"quadkey":"300130212300312111","location":{"lat":-14.9982625,"lng":35.5844393},"bounding_box":null,"name":"Toilets","name_suffix":"Southern Region, Malawi","url":"https://travel.sygic.com/go/poi:16834573","duration":300,"marker":"other:toilets","categories":[],"parent_ids":["region:53654","country:132","continent:2"],"perex":null,"customer_rating":null,"star_rating":null,"star_rating_unofficial":null,"thumbnail_url":null},{"id":"poi:16834650","level":"poi","rating":0.001,"quadkey":"300130212301023012","location":{"lat":-14.9792684,"lng":35.6100355},"bounding_box":null,"name":"Toilets","name_suffix":"Southern Region, Malawi","url":"https://travel.sygic.com/go/poi:16834650","duration":300,"marker":"other:toilets","categories":[],"parent_ids":["region:53654","country:132","continent:2"],"perex":null,"customer_rating":null,"star_rating":null,"star_rating_unofficial":null,"thumbnail_url":null},{"id":"poi:16834753","level":"poi","rating":0.001,"quadkey":"300130212300312111","location":{"lat":-14.9979023,"lng":35.5840021},"bounding_box":null,"name":"Kitchen","name_suffix":"Southern Region, Malawi","url":"https://travel.sygic.com/go/poi:16834753","duration":3600,"marker":"shopping","categories":["shopping"],"parent_ids":["region:53654","country:132","continent:2"],"perex":null,"customer_rating":null,"star_rating":null,"star_rating_unofficial":null,"thumbnail_url":null},{"id":"poi:16834794","level":"poi","rating":0.001,"quadkey":"300130212123231300","location":{"lat":-14.9292099,"lng":35.6350202},"bounding_box":null,"name":"Kiosk","name_suffix":"Southern Region, Malawi","url":"https://travel.sygic.com/go/poi:16834794","duration":3600,"marker":"shopping:kiosk","categories":["shopping"],"parent_ids":["region:53654","country:132","continent:2"],"perex":null,"customer_rating":null,"star_rating":null,"star_rating_unofficial":null,"thumbnail_url":null},{"id":"poi:16911383","level":"poi","rating":0.001,"quadkey":"300130212133233211","location":{"lat":-14.9406629,"lng":35.8097853},"bounding_box":null,"name":"kitchen","name_suffix":"Southern Region, Malawi","url":"https://travel.sygic.com/go/poi:16911383","duration":3600,"marker":"shopping","categories":["shopping"],"parent_ids":["region:53654","country:132","continent:2"],"perex":null,"customer_rating":null,"star_rating":null,"star_rating_unofficial":null,"thumbnail_url":null},{"id":"poi:16911592","level":"poi","rating":0.001,"quadkey":"300130212133222332","location":{"lat":-14.9443063,"lng":35.780162},"bounding_box":null,"name":"kitchen","name_suffix":"Southern Region, Malawi","url":"https://travel.sygic.com/go/poi:16911592","duration":3600,"marker":"shopping","categories":["shopping"],"parent_ids":["region:53654","country:132","continent:2"],"perex":null,"customer_rating":null,"star_rating":null,"star_rating_unofficial":null,"thumbnail_url":null},{"id":"poi:16911607","level":"poi","rating":0.001,"quadkey":"300130212300311103","location":{"lat":-14.9897863,"lng":35.5920726},"bounding_box":null,"name":"Shower","name_suffix":"Southern Region, Malawi","url":"https://travel.sygic.com/go/poi:16911607","duration":3600,"marker":"other:shower","categories":[],"parent_ids":["region:53654","country:132","continent:2"],"perex":null,"customer_rating":null,"star_rating":null,"star_rating_unofficial":null,"thumbnail_url":null},{"id":"poi:16912006","level":"poi","rating":0.001,"quadkey":"300130212133233022","location":{"lat":-14.939474,"lng":35.8052518},"bounding_box":null,"name":"Shower","name_suffix":"Southern Region, Malawi","url":"https://travel.sygic.com/go/poi:16912006","duration":3600,"marker":"other:shower","categories":[],"parent_ids":["region:53654","country:132","continent:2"],"perex":null,"customer_rating":null,"star_rating":null,"star_rating_unofficial":null,"thumbnail_url":null},{"id":"poi:16912083","level":"poi","rating":0.001,"quadkey":"300130212133233200","location":{"lat":-14.9397662,"lng":35.8052953},"bounding_box":null,"name":"Toilets","name_suffix":"Southern Region, Malawi","url":"https://travel.sygic.com/go/poi:16912083","duration":300,"marker":"other:toilets","categories":[],"parent_ids":["region:53654","country:132","continent:2"],"perex":null,"customer_rating":null,"star_rating":null,"star_rating_unofficial":null,"thumbnail_url":null},{"id":"poi:16912599","level":"poi","rating":0.001,"quadkey":"300130212311011001","location":{"lat":-14.9459692,"lng":35.8069343},"bounding_box":null,"name":"Shower","name_suffix":"Southern Region, Malawi","url":"https://travel.sygic.com/go/poi:16912599","duration":3600,"marker":"other:shower","categories":[],"parent_ids":["region:53654","country:132","continent:2"],"perex":null,"customer_rating":null,"star_rating":null,"star_rating_unofficial":null,"thumbnail_url":null},{"id":"poi:16912739","level":"poi","rating":0.001,"quadkey":"300130212133222323","location":{"lat":-14.9439616,"lng":35.7796806},"bounding_box":null,"name":"kitchen","name_suffix":"Southern Region, Malawi","url":"https://travel.sygic.com/go/poi:16912739","duration":3600,"marker":"shopping","categories":["shopping"],"parent_ids":["region:53654","country:132","continent:2"],"perex":null,"customer_rating":null,"star_rating":null,"star_rating_unofficial":null,"thumbnail_url":null},{"id":"poi:16912994","level":"poi","rating":0.001,"quadkey":"300130212133222323","location":{"lat":-14.9442934,"lng":35.7794995},"bounding_box":null,"name":"Toilets","name_suffix":"Southern Region, Malawi","url":"https://travel.sygic.com/go/poi:16912994","duration":300,"marker":"other:toilets","categories":[],"parent_ids":["region:53654","country:132","continent:2"],"perex":null,"customer_rating":null,"star_rating":null,"star_rating_unofficial":null,"thumbnail_url":null},{"id":"poi:16913487","level":"poi","rating":0.001,"quadkey":"300130212300311102","location":{"lat":-14.989583,"lng":35.5908227},"bounding_box":null,"name":"Toilets","name_suffix":"Southern Region, Malawi","url":"https://travel.sygic.com/go/poi:16913487","duration":300,"marker":"other:toilets","categories":[],"parent_ids":["region:53654","country:132","continent:2"],"perex":null,"customer_rating":null,"star_rating":null,"star_rating_unofficial":null,"thumbnail_url":null},{"id":"poi:16913503","level":"poi","rating":0.001,"quadkey":"300130212300311103","location":{"lat":-14.9898486,"lng":35.5919815},"bounding_box":null,"name":"Toilets","name_suffix":"Southern Region, Malawi","url":"https://travel.sygic.com/go/poi:16913503","duration":300,"marker":"other:toilets","categories":[],"parent_ids":["region:53654","country:132","continent:2"],"perex":null,"customer_rating":null,"star_rating":null,"star_rating_unofficial":null,"thumbnail_url":null},{"id":"poi:16914940","level":"poi","rating":0.001,"quadkey":"300130212202130211","location":{"lat":-15.0570455,"lng":35.2273302},"bounding_box":null,"name":"Shower","name_suffix":"Southern Region, Malawi","url":"https://travel.sygic.com/go/poi:16914940","duration":3600,"marker":"other:shower","categories":[],"parent_ids":["region:53654","country:132","continent:2"],"perex":null,"customer_rating":null,"star_rating":null,"star_rating_unofficial":null,"thumbnail_url":null},{"id":"poi:17072815","level":"poi","rating":0.001,"quadkey":"300130200002110213","location":{"lat":-14.015773,"lng":33.820697},"bounding_box":null,"name":"ruinas","name_suffix":"Central Region, Malawi","url":"https://travel.sygic.com/go/poi:17072815","duration":3600,"marker":"sightseeing:ruins","categories":["sightseeing"],"parent_ids":["region:53536","country:132","continent:2"],"perex":null,"customer_rating":null,"star_rating":null,"star_rating_unofficial":null,"thumbnail_url":null},{"id":"poi:17072816","level":"poi","rating":0.001,"quadkey":"300130200002110010","location":{"lat":-14.0090843,"lng":33.8187377},"bounding_box":null,"name":"ruinas","name_suffix":"Lilongwe, Malawi","url":"https://travel.sygic.com/go/poi:17072816","duration":3600,"marker":"sightseeing:ruins","categories":["sightseeing"],"parent_ids":["city:1306","region:53536","country:132","continent:2"],"perex":null,"customer_rating":null,"star_rating":null,"star_rating_unofficial":null,"thumbnail_url":null},{"id":"poi:16655193","level":"poi","rating":0.001,"quadkey":"300130201311300010","location":{"lat":-14.3080312,"lng":35.1152341},"bounding_box":null,"name":"Toilets","name_suffix":"Nkopola, Malawi","url":"https://travel.sygic.com/go/poi:16655193","duration":900,"marker":"other:toilets","categories":[],"parent_ids":["region:515275","region:53654","country:132","continent:2"],"perex":null,"customer_rating":null,"star_rating":null,"star_rating_unofficial":null,"thumbnail_url":null},{"id":"poi:16865467","level":"poi","rating":0.001,"quadkey":"300130212130210210","location":{"lat":-14.8233775,"lng":35.709651},"bounding_box":null,"name":"Toilets","name_suffix":"Southern Region, Malawi","url":"https://travel.sygic.com/go/poi:16865467","duration":300,"marker":"other:toilets","categories":[],"parent_ids":["region:53654","country:132","continent:2"],"perex":null,"customer_rating":null,"star_rating":null,"star_rating_unofficial":null,"thumbnail_url":null},{"id":"poi:16865796","level":"poi","rating":0.001,"quadkey":"300130212202130300","location":{"lat":-15.0574677,"lng":35.2276939},"bounding_box":null,"name":"Kitchen","name_suffix":"Southern Region, Malawi","url":"https://travel.sygic.com/go/poi:16865796","duration":3600,"marker":"shopping","categories":["shopping"],"parent_ids":["region:53654","country:132","continent:2"],"perex":null,"customer_rating":null,"star_rating":null,"star_rating_unofficial":null,"thumbnail_url":null},{"id":"poi:16865991","level":"poi","rating":0.001,"quadkey":"300130212202130333","location":{"lat":-15.0611704,"lng":35.2327975},"bounding_box":null,"name":"Kitchen","name_suffix":"Southern Region, Malawi","url":"https://travel.sygic.com/go/poi:16865991","duration":3600,"marker":"shopping","categories":["shopping"],"parent_ids":["region:53654","country:132","continent:2"],"perex":null,"customer_rating":null,"star_rating":null,"star_rating_unofficial":null,"thumbnail_url":null},{"id":"poi:16693994","level":"poi","rating":0.001,"quadkey":"300112220012202000","location":{"lat":-9.9370706,"lng":33.9267232},"bounding_box":null,"name":"FMB Bank","name_suffix":"Karonga, Malawi","url":"https://travel.sygic.com/go/poi:16693994","duration":900,"marker":"other:bank","categories":[],"parent_ids":["city:1305","region:53555","country:132","continent:2"],"perex":null,"customer_rating":null,"star_rating":null,"star_rating_unofficial":null,"thumbnail_url":null},{"id":"poi:16905372","level":"poi","rating":0.001,"quadkey":"300130212300300313","location":{"lat":-14.9947749,"lng":35.5619301},"bounding_box":null,"name":"Toilets","name_suffix":"Southern Region, Malawi","url":"https://travel.sygic.com/go/poi:16905372","duration":300,"marker":"other:toilets","categories":[],"parent_ids":["region:53654","country:132","continent:2"],"perex":null,"customer_rating":null,"star_rating":null,"star_rating_unofficial":null,"thumbnail_url":null},{"id":"poi:16906022","level":"poi","rating":0.001,"quadkey":"300130212300301202","location":{"lat":-14.9945689,"lng":35.5637406},"bounding_box":null,"name":"Toilets","name_suffix":"Southern Region, Malawi","url":"https://travel.sygic.com/go/poi:16906022","duration":300,"marker":"other:toilets","categories":[],"parent_ids":["region:53654","country:132","continent:2"],"perex":null,"customer_rating":null,"star_rating":null,"star_rating_unofficial":null,"thumbnail_url":null},{"id":"poi:16906030","level":"poi","rating":0.001,"quadkey":"300130212300301202","location":{"lat":-14.9948305,"lng":35.5634617},"bounding_box":null,"name":"Toilets","name_suffix":"Southern Region, Malawi","url":"https://travel.sygic.com/go/poi:16906030","duration":300,"marker":"other:toilets","categories":[],"parent_ids":["region:53654","country:132","continent:2"],"perex":null,"customer_rating":null,"star_rating":null,"star_rating_unofficial":null,"thumbnail_url":null},{"id":"poi:16907201","level":"poi","rating":0.001,"quadkey":"300130212300300333","location":{"lat":-14.9969745,"lng":35.5619985},"bounding_box":null,"name":"Toilets","name_suffix":"Southern Region, Malawi","url":"https://travel.sygic.com/go/poi:16907201","duration":300,"marker":"other:toilets","categories":[],"parent_ids":["region:53654","country:132","continent:2"],"perex":null,"customer_rating":null,"star_rating":null,"star_rating_unofficial":null,"thumbnail_url":null},{"id":"poi:16907321","level":"poi","rating":0.001,"quadkey":"300130212300300202","location":{"lat":-14.9941829,"lng":35.552236},"bounding_box":null,"name":"Toilets","name_suffix":"Southern Region, Malawi","url":"https://travel.sygic.com/go/poi:16907321","duration":300,"marker":"other:toilets","categories":[],"parent_ids":["region:53654","country:132","continent:2"],"perex":null,"customer_rating":null,"star_rating":null,"star_rating_unofficial":null,"thumbnail_url":null},{"id":"poi:16907345","level":"poi","rating":0.001,"quadkey":"300130212300301220","location":{"lat":-14.9953798,"lng":35.5637219},"bounding_box":null,"name":"Toilets","name_suffix":"Southern Region, Malawi","url":"https://travel.sygic.com/go/poi:16907345","duration":300,"marker":"other:toilets","categories":[],"parent_ids":["region:53654","country:132","continent:2"],"perex":null,"customer_rating":null,"star_rating":null,"star_rating_unofficial":null,"thumbnail_url":null},{"id":"poi:16907544","level":"poi","rating":0.001,"quadkey":"300130212300301220","location":{"lat":-14.9956726,"lng":35.5632283},"bounding_box":null,"name":"Toilets","name_suffix":"Southern Region, Malawi","url":"https://travel.sygic.com/go/poi:16907544","duration":300,"marker":"other:toilets","categories":[],"parent_ids":["region:53654","country:132","continent:2"],"perex":null,"customer_rating":null,"star_rating":null,"star_rating_unofficial":null,"thumbnail_url":null},{"id":"poi:16909739","level":"poi","rating":0.001,"quadkey":"300130212133233022","location":{"lat":-14.9393956,"lng":35.8055943},"bounding_box":null,"name":"Shower","name_suffix":"Southern Region, Malawi","url":"https://travel.sygic.com/go/poi:16909739","duration":3600,"marker":"other:shower","categories":[],"parent_ids":["region:53654","country:132","continent:2"],"perex":null,"customer_rating":null,"star_rating":null,"star_rating_unofficial":null,"thumbnail_url":null},{"id":"poi:16909782","level":"poi","rating":0.001,"quadkey":"300130212133233210","location":{"lat":-14.9405255,"lng":35.8078004},"bounding_box":null,"name":"Shower","name_suffix":"Southern Region, Malawi","url":"https://travel.sygic.com/go/poi:16909782","duration":3600,"marker":"other:shower","categories":[],"parent_ids":["region:53654","country:132","continent:2"],"perex":null,"customer_rating":null,"star_rating":null,"star_rating_unofficial":null,"thumbnail_url":null},{"id":"poi:16864314","level":"poi","rating":0.001,"quadkey":"300130212130121221","location":{"lat":-14.8053367,"lng":35.7408823},"bounding_box":null,"name":"Kitchen","name_suffix":"Southern Region, Malawi","url":"https://travel.sygic.com/go/poi:16864314","duration":3600,"marker":"shopping","categories":["shopping"],"parent_ids":["region:53654","country:132","continent:2"],"perex":null,"customer_rating":null,"star_rating":null,"star_rating_unofficial":null,"thumbnail_url":null},{"id":"poi:16825083","level":"poi","rating":0.001,"quadkey":"300130212132221330","location":{"lat":-14.9322413,"lng":35.7039047},"bounding_box":null,"name":"Toilets","name_suffix":"Southern Region, Malawi","url":"https://travel.sygic.com/go/poi:16825083","duration":300,"marker":"other:toilets","categories":[],"parent_ids":["region:53654","country:132","continent:2"],"perex":null,"customer_rating":null,"star_rating":null,"star_rating_unofficial":null,"thumbnail_url":null},{"id":"poi:16825170","level":"poi","rating":0.001,"quadkey":"300130212300320003","location":{"lat":-15.01026,"lng":35.5532239},"bounding_box":null,"name":"Toilets","name_suffix":"Southern Region, Malawi","url":"https://travel.sygic.com/go/poi:16825170","duration":300,"marker":"other:toilets","categories":[],"parent_ids":["region:53654","country:132","continent:2"],"perex":null,"customer_rating":null,"star_rating":null,"star_rating_unofficial":null,"thumbnail_url":null},{"id":"poi:16825226","level":"poi","rating":0.001,"quadkey":"300130212300320002","location":{"lat":-15.0105286,"lng":35.5525443},"bounding_box":null,"name":"Shower","name_suffix":"Southern Region, Malawi","url":"https://travel.sygic.com/go/poi:16825226","duration":3600,"marker":"other:shower","categories":[],"parent_ids":["region:53654","country:132","continent:2"],"perex":null,"customer_rating":null,"star_rating":null,"star_rating_unofficial":null,"thumbnail_url":null},{"id":"poi:16825307","level":"poi","rating":0.001,"quadkey":"300130212300302222","location":{"lat":-15.0081163,"lng":35.5531284},"bounding_box":null,"name":"Shop","name_suffix":"Southern Region, Malawi","url":"https://travel.sygic.com/go/poi:16825307","duration":3600,"marker":"shopping","categories":["shopping"],"parent_ids":["region:53654","country:132","continent:2"],"perex":null,"customer_rating":null,"star_rating":null,"star_rating_unofficial":null,"thumbnail_url":null},{"id":"poi:16825429","level":"poi","rating":0.001,"quadkey":"300130212132231232","location":{"lat":-14.9336561,"lng":35.7196382},"bounding_box":null,"name":"Toilets","name_suffix":"Southern Region, Malawi","url":"https://travel.sygic.com/go/poi:16825429","duration":300,"marker":"other:toilets","categories":[],"parent_ids":["region:53654","country:132","continent:2"],"perex":null,"customer_rating":null,"star_rating":null,"star_rating_unofficial":null,"thumbnail_url":null},{"id":"poi:16825585","level":"poi","rating":0.001,"quadkey":"300130212300302220","location":{"lat":-15.0070101,"lng":35.5525667},"bounding_box":null,"name":"Toilets","name_suffix":"Southern Region, Malawi","url":"https://travel.sygic.com/go/poi:16825585","duration":300,"marker":"other:toilets","categories":[],"parent_ids":["region:53654","country:132","continent:2"],"perex":null,"customer_rating":null,"star_rating":null,"star_rating_unofficial":null,"thumbnail_url":null},{"id":"poi:16825717","level":"poi","rating":0.001,"quadkey":"300130212300213321","location":{"lat":-15.0067496,"lng":35.548985},"bounding_box":null,"name":"Shop","name_suffix":"Southern Region, Malawi","url":"https://travel.sygic.com/go/poi:16825717","duration":3600,"marker":"shopping","categories":["shopping"],"parent_ids":["region:53654","country:132","continent:2"],"perex":null,"customer_rating":null,"star_rating":null,"star_rating_unofficial":null,"thumbnail_url":null},{"id":"poi:16825869","level":"poi","rating":0.001,"quadkey":"300130212132221333","location":{"lat":-14.9334577,"lng":35.7043198},"bounding_box":null,"name":"Toilets","name_suffix":"Southern Region, Malawi","url":"https://travel.sygic.com/go/poi:16825869","duration":300,"marker":"other:toilets","categories":[],"parent_ids":["region:53654","country:132","continent:2"],"perex":null,"customer_rating":null,"star_rating":null,"star_rating_unofficial":null,"thumbnail_url":null},{"id":"poi:16826006","level":"poi","rating":0.001,"quadkey":"300130212123312120","location":{"lat":-14.9158579,"lng":35.6671338},"bounding_box":null,"name":"Toilets","name_suffix":"Southern Region, Malawi","url":"https://travel.sygic.com/go/poi:16826006","duration":300,"marker":"other:toilets","categories":[],"parent_ids":["region:53654","country:132","continent:2"],"perex":null,"customer_rating":null,"star_rating":null,"star_rating_unofficial":null,"thumbnail_url":null},{"id":"poi:16826063","level":"poi","rating":0.001,"quadkey":"300130212132232310","location":{"lat":-14.9396688,"lng":35.714705},"bounding_box":null,"name":"Toilets","name_suffix":"Southern Region, Malawi","url":"https://travel.sygic.com/go/poi:16826063","duration":300,"marker":"other:toilets","categories":[],"parent_ids":["region:53654","country:132","continent:2"],"perex":null,"customer_rating":null,"star_rating":null,"star_rating_unofficial":null,"thumbnail_url":null},{"id":"poi:16826483","level":"poi","rating":0.001,"quadkey":"300130212132231023","location":{"lat":-14.9277674,"lng":35.7182615},"bounding_box":null,"name":"Toilets","name_suffix":"Southern Region, Malawi","url":"https://travel.sygic.com/go/poi:16826483","duration":300,"marker":"other:toilets","categories":[],"parent_ids":["region:53654","country:132","continent:2"],"perex":null,"customer_rating":null,"star_rating":null,"star_rating_unofficial":null,"thumbnail_url":null},{"id":"poi:16826533","level":"poi","rating":0.001,"quadkey":"300130212123312013","location":{"lat":-14.915116,"lng":35.666262},"bounding_box":null,"name":"Toilets","name_suffix":"Southern Region, Malawi","url":"https://travel.sygic.com/go/poi:16826533","duration":300,"marker":"other:toilets","categories":[],"parent_ids":["region:53654","country:132","continent:2"],"perex":null,"customer_rating":null,"star_rating":null,"star_rating_unofficial":null,"thumbnail_url":null},{"id":"poi:16826554","level":"poi","rating":0.001,"quadkey":"300130212123313220","location":{"lat":-14.9213698,"lng":35.6735845},"bounding_box":null,"name":"Toilets","name_suffix":"Southern Region, Malawi","url":"https://travel.sygic.com/go/poi:16826554","duration":300,"marker":"other:toilets","categories":[],"parent_ids":["region:53654","country:132","continent:2"],"perex":null,"customer_rating":null,"star_rating":null,"star_rating_unofficial":null,"thumbnail_url":null},{"id":"poi:16826624","level":"poi","rating":0.001,"quadkey":"300130212132221001","location":{"lat":-14.924561,"lng":35.6967225},"bounding_box":null,"name":"Toilets","name_suffix":"Southern Region, Malawi","url":"https://travel.sygic.com/go/poi:16826624","duration":300,"marker":"other:toilets","categories":[],"parent_ids":["region:53654","country:132","continent:2"],"perex":null,"customer_rating":null,"star_rating":null,"star_rating_unofficial":null,"thumbnail_url":null},{"id":"poi:16826627","level":"poi","rating":0.001,"quadkey":"300130212132230222","location":{"lat":-14.9328696,"lng":35.7061876},"bounding_box":null,"name":"Toilets","name_suffix":"Southern Region, Malawi","url":"https://travel.sygic.com/go/poi:16826627","duration":300,"marker":"other:toilets","categories":[],"parent_ids":["region:53654","country:132","continent:2"],"perex":null,"customer_rating":null,"star_rating":null,"star_rating_unofficial":null,"thumbnail_url":null},{"id":"poi:16864973","level":"poi","rating":0.001,"quadkey":"300130212202133000","location":{"lat":-15.0616233,"lng":35.2335081},"bounding_box":null,"name":"Toilets","name_suffix":"Southern Region, Malawi","url":"https://travel.sygic.com/go/poi:16864973","duration":300,"marker":"other:toilets","categories":[],"parent_ids":["region:53654","country:132","continent:2"],"perex":null,"customer_rating":null,"star_rating":null,"star_rating_unofficial":null,"thumbnail_url":null},{"id":"poi:16915857","level":"poi","rating":0.001,"quadkey":"300130212310113120","location":{"lat":-14.9587496,"lng":35.7669739},"bounding_box":null,"name":"Toilets","name_suffix":"Southern Region, Malawi","url":"https://travel.sygic.com/go/poi:16915857","duration":300,"marker":"other:toilets","categories":[],"parent_ids":["region:53654","country:132","continent:2"],"perex":null,"customer_rating":null,"star_rating":null,"star_rating_unofficial":null,"thumbnail_url":null},{"id":"poi:16916460","level":"poi","rating":0.001,"quadkey":"300130212310112113","location":{"lat":-14.9577269,"lng":35.7604422},"bounding_box":null,"name":"Toilets","name_suffix":"Southern Region, Malawi","url":"https://travel.sygic.com/go/poi:16916460","duration":300,"marker":"other:toilets","categories":[],"parent_ids":["region:53654","country:132","continent:2"],"perex":null,"customer_rating":null,"star_rating":null,"star_rating_unofficial":null,"thumbnail_url":null},{"id":"poi:16916507","level":"poi","rating":0.001,"quadkey":"300130212311003030","location":{"lat":-14.9587496,"lng":35.7854918},"bounding_box":null,"name":"Toilets","name_suffix":"Southern Region, Malawi","url":"https://travel.sygic.com/go/poi:16916507","duration":300,"marker":"other:toilets","categories":[],"parent_ids":["region:53654","country:132","continent:2"],"perex":null,"customer_rating":null,"star_rating":null,"star_rating_unofficial":null,"thumbnail_url":null},{"id":"poi:16916661","level":"poi","rating":0.001,"quadkey":"300130212311002001","location":{"lat":-14.9565377,"lng":35.7737002},"bounding_box":null,"name":"Toilets","name_suffix":"Southern Region, Malawi","url":"https://travel.sygic.com/go/poi:16916661","duration":300,"marker":"other:toilets","categories":[],"parent_ids":["region:53654","country:132","continent:2"],"perex":null,"customer_rating":null,"star_rating":null,"star_rating_unofficial":null,"thumbnail_url":null},{"id":"poi:16916689","level":"poi","rating":0.001,"quadkey":"300130212310113113","location":{"lat":-14.9572751,"lng":35.7702547},"bounding_box":null,"name":"Toilets","name_suffix":"Southern Region, Malawi","url":"https://travel.sygic.com/go/poi:16916689","duration":300,"marker":"other:toilets","categories":[],"parent_ids":["region:53654","country:132","continent:2"],"perex":null,"customer_rating":null,"star_rating":null,"star_rating_unofficial":null,"thumbnail_url":null},{"id":"poi:16917520","level":"poi","rating":0.001,"quadkey":"300130212202130211","location":{"lat":-15.0573226,"lng":35.2275106},"bounding_box":null,"name":"kiosk","name_suffix":"Southern Region, Malawi","url":"https://travel.sygic.com/go/poi:16917520","duration":3600,"marker":"shopping:kiosk","categories":["shopping"],"parent_ids":["region:53654","country:132","continent:2"],"perex":null,"customer_rating":null,"star_rating":null,"star_rating_unofficial":null,"thumbnail_url":null},{"id":"poi:16918061","level":"poi","rating":0.001,"quadkey":"300130212310111223","location":{"lat":-14.9551789,"lng":35.7630982},"bounding_box":null,"name":"Toilets","name_suffix":"Southern Region, Malawi","url":"https://travel.sygic.com/go/poi:16918061","duration":300,"marker":"other:toilets","categories":[],"parent_ids":["region:53654","country:132","continent:2"],"perex":null,"customer_rating":null,"star_rating":null,"star_rating_unofficial":null,"thumbnail_url":null},{"id":"poi:16918082","level":"poi","rating":0.001,"quadkey":"300130212310113120","location":{"lat":-14.9587749,"lng":35.7666821},"bounding_box":null,"name":"Toilets","name_suffix":"Southern Region, Malawi","url":"https://travel.sygic.com/go/poi:16918082","duration":300,"marker":"other:toilets","categories":[],"parent_ids":["region:53654","country:132","continent:2"],"perex":null,"customer_rating":null,"star_rating":null,"star_rating_unofficial":null,"thumbnail_url":null},{"id":"poi:16918555","level":"poi","rating":0.001,"quadkey":"300130212310112131","location":{"lat":-14.958587,"lng":35.7600381},"bounding_box":null,"name":"Toilets","name_suffix":"Southern Region, Malawi","url":"https://travel.sygic.com/go/poi:16918555","duration":300,"marker":"other:toilets","categories":[],"parent_ids":["region:53654","country:132","continent:2"],"perex":null,"customer_rating":null,"star_rating":null,"star_rating_unofficial":null,"thumbnail_url":null},{"id":"poi:16561661","level":"poi","rating":0.001,"quadkey":"300130200000203311","location":{"lat":-13.9827793,"lng":33.77111},"bounding_box":null,"name":"Lilongwe Urban Poor People's Network","name_suffix":"Lilongwe, Malawi","url":"https://travel.sygic.com/go/poi:16561661","duration":3600,"marker":"going_out:community_centre","categories":[],"parent_ids":["city:1306","region:53536","country:132","continent:2"],"perex":null,"customer_rating":null,"star_rating":null,"star_rating_unofficial":null,"thumbnail_url":null},{"id":"poi:16429798","level":"poi","rating":0.001,"quadkey":"300130000310223311","location":{"lat":-11.6043478,"lng":34.2990431},"bounding_box":null,"name":"Big Blue Backpackers","name_suffix":"Nkhata Bay, Malawi","url":"https://travel.sygic.com/go/poi:16429798","duration":3600,"marker":"sleeping:hostel","categories":["sleeping"],"parent_ids":["city:428971","region:53555","country:132","continent:2"],"perex":null,"customer_rating":null,"star_rating":null,"star_rating_unofficial":null,"thumbnail_url":null},{"id":"poi:15579388","level":"poi","rating":0.001,"quadkey":"300130022310013002","location":{"lat":-13.5939468,"lng":34.3116096},"bounding_box":null,"name":"Toilets","name_suffix":"Central Region, Malawi","url":"https://travel.sygic.com/go/poi:15579388","duration":300,"marker":"other:toilets","categories":[],"parent_ids":["region:53536","country:132","continent:2"],"perex":null,"customer_rating":null,"star_rating":null,"star_rating_unofficial":null,"thumbnail_url":null},{"id":"poi:15362161","level":"poi","rating":0.001,"quadkey":"300130212213311313","location":{"lat":-15.0789081,"lng":35.5072342},"bounding_box":null,"name":"Temporary Kitchen","name_suffix":"Southern Region, Malawi","url":"https://travel.sygic.com/go/poi:15362161","duration":3600,"marker":"shopping","categories":["shopping"],"parent_ids":["region:53654","country:132","continent:2"],"perex":null,"customer_rating":null,"star_rating":null,"star_rating_unofficial":null,"thumbnail_url":null},{"id":"poi:15362243","level":"poi","rating":0.001,"quadkey":"300130212213311311","location":{"lat":-15.0786447,"lng":35.5076234},"bounding_box":null,"name":"Toilets","name_suffix":"Southern Region, Malawi","url":"https://travel.sygic.com/go/poi:15362243","duration":300,"marker":"other:toilets","categories":[],"parent_ids":["region:53654","country:132","continent:2"],"perex":null,"customer_rating":null,"star_rating":null,"star_rating_unofficial":null,"thumbnail_url":null},{"id":"poi:16705575","level":"poi","rating":0.001,"quadkey":"300130020310023113","location":{"lat":-12.9314935,"lng":34.2980249},"bounding_box":null,"name":"Livingstone Tree","name_suffix":"Nkhotakota, Malawi","url":"https://travel.sygic.com/go/poi:16705575","duration":3600,"marker":"sightseeing","categories":["sightseeing"],"parent_ids":["city:380878","region:53536","country:132","continent:2"],"perex":null,"customer_rating":null,"star_rating":null,"star_rating_unofficial":null,"thumbnail_url":null},{"id":"poi:15587909","level":"poi","rating":0.001,"quadkey":"300130221301321012","location":{"lat":-15.6886037,"lng":34.9508945},"bounding_box":null,"name":"Ruins","name_suffix":"Southern Region, Malawi","url":"https://travel.sygic.com/go/poi:15587909","duration":3600,"marker":"sightseeing:ruins","categories":["sightseeing"],"parent_ids":["region:53654","country:132","continent:2"],"perex":null,"customer_rating":null,"star_rating":null,"star_rating_unofficial":null,"thumbnail_url":null},{"id":"poi:15587914","level":"poi","rating":0.001,"quadkey":"300130221310320002","location":{"lat":-15.6890416,"lng":35.0256961},"bounding_box":null,"name":"Ruins","name_suffix":"Southern Region, Malawi","url":"https://travel.sygic.com/go/poi:15587914","duration":3600,"marker":"sightseeing:ruins","categories":["sightseeing"],"parent_ids":["region:53654","country:132","continent:2"],"perex":null,"customer_rating":null,"star_rating":null,"star_rating_unofficial":null,"thumbnail_url":null},{"id":"poi:15588037","level":"poi","rating":0.001,"quadkey":"300130221312003133","location":{"lat":-15.7224216,"lng":35.0020969},"bounding_box":null,"name":"Ruins","name_suffix":"Southern Region, Malawi","url":"https://travel.sygic.com/go/poi:15588037","duration":3600,"marker":"sightseeing:ruins","categories":["sightseeing"],"parent_ids":["region:53654","country:132","continent:2"],"perex":null,"customer_rating":null,"star_rating":null,"star_rating_unofficial":null,"thumbnail_url":null},{"id":"poi:15588094","level":"poi","rating":0.001,"quadkey":"300130221312012120","location":{"lat":-15.7214622,"lng":35.0086678},"bounding_box":null,"name":"Ruins","name_suffix":"Southern Region, Malawi","url":"https://travel.sygic.com/go/poi:15588094","duration":3600,"marker":"sightseeing:ruins","categories":["sightseeing"],"parent_ids":["region:53654","country:132","continent:2"],"perex":null,"customer_rating":null,"star_rating":null,"star_rating_unofficial":null,"thumbnail_url":null},{"id":"poi:15500595","level":"poi","rating":0.001,"quadkey":"300130200002021300","location":{"lat":-14.0356035,"lng":33.7666588},"bounding_box":null,"name":"Ruins","name_suffix":"Central Region, Malawi","url":"https://travel.sygic.com/go/poi:15500595","duration":3600,"marker":"sightseeing:ruins","categories":["sightseeing"],"parent_ids":["region:53536","country:132","continent:2"],"perex":null,"customer_rating":null,"star_rating":null,"star_rating_unofficial":null,"thumbnail_url":null},{"id":"poi:15500769","level":"poi","rating":0.001,"quadkey":"300130200002112300","location":{"lat":-14.0258507,"lng":33.8225071},"bounding_box":null,"name":"Hospital","name_suffix":"Central Region, Malawi","url":"https://travel.sygic.com/go/poi:15500769","duration":3600,"marker":"other:doctor:hospital","categories":[],"parent_ids":["region:53536","country:132","continent:2"],"perex":null,"customer_rating":null,"star_rating":null,"star_rating_unofficial":null,"thumbnail_url":null},{"id":"poi:15379036","level":"poi","rating":0.001,"quadkey":"300130212130123000","location":{"lat":-14.8075678,"lng":35.7396825},"bounding_box":null,"name":"Shop","name_suffix":"Southern Region, Malawi","url":"https://travel.sygic.com/go/poi:15379036","duration":3600,"marker":"shopping","categories":["shopping"],"parent_ids":["region:53654","country:132","continent:2"],"perex":null,"customer_rating":null,"star_rating":null,"star_rating_unofficial":null,"thumbnail_url":null},{"id":"poi:15379896","level":"poi","rating":0.001,"quadkey":"300130212132121020","location":{"lat":-14.884529,"lng":35.7388038},"bounding_box":null,"name":"Graveyard","name_suffix":"Southern Region, Malawi","url":"https://travel.sygic.com/go/poi:15379896","duration":1800,"marker":"other:cemetery","categories":[],"parent_ids":["region:53654","country:132","continent:2"],"perex":null,"customer_rating":null,"star_rating":null,"star_rating_unofficial":null,"thumbnail_url":null},{"id":"poi:15253586","level":"poi","rating":0.001,"quadkey":"300130210222030200","location":{"lat":-14.5473942,"lng":35.1791587},"bounding_box":null,"name":"St Peters","name_suffix":"Southern Region, Malawi","url":"https://travel.sygic.com/go/poi:15253586","duration":1800,"marker":"other:place_of_worship:church","categories":[],"parent_ids":["region:53654","country:132","continent:2"],"perex":null,"customer_rating":null,"star_rating":null,"star_rating_unofficial":null,"thumbnail_url":null},{"id":"poi:16900201","level":"poi","rating":0.001,"quadkey":"300130212123013101","location":{"lat":-14.8714671,"lng":35.636838},"bounding_box":null,"name":"Drinking Water","name_suffix":"Southern Region, Malawi","url":"https://travel.sygic.com/go/poi:16900201","duration":3600,"marker":"other:drinking_water","categories":[],"parent_ids":["region:53654","country:132","continent:2"],"perex":null,"customer_rating":null,"star_rating":null,"star_rating_unofficial":null,"thumbnail_url":null},{"id":"poi:16837871","level":"poi","rating":0.001,"quadkey":"300130212311000131","location":{"lat":-14.9487384,"lng":35.782318},"bounding_box":null,"name":"Shower","name_suffix":"Southern Region, Malawi","url":"https://travel.sygic.com/go/poi:16837871","duration":3600,"marker":"other:shower","categories":[],"parent_ids":["region:53654","country:132","continent:2"],"perex":null,"customer_rating":null,"star_rating":null,"star_rating_unofficial":null,"thumbnail_url":null},{"id":"poi:16837887","level":"poi","rating":0.001,"quadkey":"300130212311001022","location":{"lat":-14.9487992,"lng":35.782723},"bounding_box":null,"name":"Kitchen","name_suffix":"Southern Region, Malawi","url":"https://travel.sygic.com/go/poi:16837887","duration":3600,"marker":"shopping","categories":["shopping"],"parent_ids":["region:53654","country:132","continent:2"],"perex":null,"customer_rating":null,"star_rating":null,"star_rating_unofficial":null,"thumbnail_url":null},{"id":"poi:16837916","level":"poi","rating":0.001,"quadkey":"300130212311000311","location":{"lat":-14.9506539,"lng":35.7812722},"bounding_box":null,"name":"Shower","name_suffix":"Southern Region, Malawi","url":"https://travel.sygic.com/go/poi:16837916","duration":3600,"marker":"other:shower","categories":[],"parent_ids":["region:53654","country:132","continent:2"],"perex":null,"customer_rating":null,"star_rating":null,"star_rating_unofficial":null,"thumbnail_url":null},{"id":"poi:16837992","level":"poi","rating":0.001,"quadkey":"300130212310000300","location":{"lat":-14.9502937,"lng":35.6891838},"bounding_box":null,"name":"Shop","name_suffix":"Southern Region, Malawi","url":"https://travel.sygic.com/go/poi:16837992","duration":3600,"marker":"shopping","categories":["shopping"],"parent_ids":["region:53654","country:132","continent:2"],"perex":null,"customer_rating":null,"star_rating":null,"star_rating_unofficial":null,"thumbnail_url":null},{"id":"poi:16838217","level":"poi","rating":0.001,"quadkey":"300130212310001020","location":{"lat":-14.9478293,"lng":35.6949151},"bounding_box":null,"name":"Shop","name_suffix":"Southern Region, Malawi","url":"https://travel.sygic.com/go/poi:16838217","duration":3600,"marker":"shopping","categories":["shopping"],"parent_ids":["region:53654","country:132","continent:2"],"perex":null,"customer_rating":null,"star_rating":null,"star_rating_unofficial":null,"thumbnail_url":null},{"id":"poi:16838219","level":"poi","rating":0.001,"quadkey":"300130212133232111","location":{"lat":-14.9353204,"lng":35.8039691},"bounding_box":null,"name":"Shower","name_suffix":"Southern Region, Malawi","url":"https://travel.sygic.com/go/poi:16838219","duration":3600,"marker":"other:shower","categories":[],"parent_ids":["region:53654","country:132","continent:2"],"perex":null,"customer_rating":null,"star_rating":null,"star_rating_unofficial":null,"thumbnail_url":null},{"id":"poi:16838266","level":"poi","rating":0.001,"quadkey":"300130212210120103","location":{"lat":-14.9682865,"lng":35.3832259},"bounding_box":null,"name":"Shower","name_suffix":"Southern Region, Malawi","url":"https://travel.sygic.com/go/poi:16838266","duration":3600,"marker":"other:shower","categories":[],"parent_ids":["region:1940223","region:53654","country:132","continent:2"],"perex":null,"customer_rating":null,"star_rating":null,"star_rating_unofficial":null,"thumbnail_url":null},{"id":"poi:16838653","level":"poi","rating":0.001,"quadkey":"300130212311000131","location":{"lat":-14.9481008,"lng":35.781367},"bounding_box":null,"name":"Kitchen","name_suffix":"Southern Region, Malawi","url":"https://travel.sygic.com/go/poi:16838653","duration":3600,"marker":"shopping","categories":["shopping"],"parent_ids":["region:53654","country:132","continent:2"],"perex":null,"customer_rating":null,"star_rating":null,"star_rating_unofficial":null,"thumbnail_url":null},{"id":"poi:16838808","level":"poi","rating":0.001,"quadkey":"300130212310001200","location":{"lat":-14.950223,"lng":35.6946583},"bounding_box":null,"name":"Shop","name_suffix":"Southern Region, Malawi","url":"https://travel.sygic.com/go/poi:16838808","duration":3600,"marker":"shopping","categories":["shopping"],"parent_ids":["region:53654","country:132","continent:2"],"perex":null,"customer_rating":null,"star_rating":null,"star_rating_unofficial":null,"thumbnail_url":null},{"id":"poi:16838908","level":"poi","rating":0.001,"quadkey":"300130212310001212","location":{"lat":-14.9517856,"lng":35.6980243},"bounding_box":null,"name":"Toilets","name_suffix":"Southern Region, Malawi","url":"https://travel.sygic.com/go/poi:16838908","duration":300,"marker":"other:toilets","categories":[],"parent_ids":["region:53654","country:132","continent:2"],"perex":null,"customer_rating":null,"star_rating":null,"star_rating_unofficial":null,"thumbnail_url":null},{"id":"poi:16838931","level":"poi","rating":0.001,"quadkey":"300130212311011203","location":{"lat":-14.9514886,"lng":35.8064655},"bounding_box":null,"name":"Kitchen","name_suffix":"Southern Region, Malawi","url":"https://travel.sygic.com/go/poi:16838931","duration":3600,"marker":"shopping","categories":["shopping"],"parent_ids":["region:53654","country:132","continent:2"],"perex":null,"customer_rating":null,"star_rating":null,"star_rating_unofficial":null,"thumbnail_url":null},{"id":"poi:16838982","level":"poi","rating":0.001,"quadkey":"300130212311001020","location":{"lat":-14.9476267,"lng":35.7827793},"bounding_box":null,"name":"Shower","name_suffix":"Southern Region, Malawi","url":"https://travel.sygic.com/go/poi:16838982","duration":3600,"marker":"other:shower","categories":[],"parent_ids":["region:53654","country:132","continent:2"],"perex":null,"customer_rating":null,"star_rating":null,"star_rating_unofficial":null,"thumbnail_url":null},{"id":"poi:16839321","level":"poi","rating":0.001,"quadkey":"300130212132022000","location":{"lat":-14.8923616,"lng":35.6840996},"bounding_box":null,"name":"Toilets","name_suffix":"Southern Region, Malawi","url":"https://travel.sygic.com/go/poi:16839321","duration":300,"marker":"other:toilets","categories":[],"parent_ids":["region:53654","country:132","continent:2"],"perex":null,"customer_rating":null,"star_rating":null,"star_rating_unofficial":null,"thumbnail_url":null},{"id":"poi:16839651","level":"poi","rating":0.001,"quadkey":"300130212132022022","location":{"lat":-14.895912,"lng":35.6839202},"bounding_box":null,"name":"Toilets","name_suffix":"Southern Region, Malawi","url":"https://travel.sygic.com/go/poi:16839651","duration":300,"marker":"other:toilets","categories":[],"parent_ids":["region:53654","country:132","continent:2"],"perex":null,"customer_rating":null,"star_rating":null,"star_rating_unofficial":null,"thumbnail_url":null},{"id":"poi:16839961","level":"poi","rating":0.001,"quadkey":"300130212301200031","location":{"lat":-14.9905902,"lng":35.6003525},"bounding_box":null,"name":"Toilets","name_suffix":"Southern Region, Malawi","url":"https://travel.sygic.com/go/poi:16839961","duration":300,"marker":"other:toilets","categories":[],"parent_ids":["region:53654","country:132","continent:2"],"perex":null,"customer_rating":null,"star_rating":null,"star_rating_unofficial":null,"thumbnail_url":null},{"id":"poi:16835027","level":"poi","rating":0.001,"quadkey":"300130212102333232","location":{"lat":-14.7744326,"lng":35.588186},"bounding_box":null,"name":"Toilets","name_suffix":"Southern Region, Malawi","url":"https://travel.sygic.com/go/poi:16835027","duration":300,"marker":"other:toilets","categories":[],"parent_ids":["region:53654","country:132","continent:2"],"perex":null,"customer_rating":null,"star_rating":null,"star_rating_unofficial":null,"thumbnail_url":null},{"id":"poi:16835073","level":"poi","rating":0.001,"quadkey":"300130212301023012","location":{"lat":-14.9791544,"lng":35.610191},"bounding_box":null,"name":"Kitchen","name_suffix":"Southern Region, Malawi","url":"https://travel.sygic.com/go/poi:16835073","duration":3600,"marker":"shopping","categories":["shopping"],"parent_ids":["region:53654","country:132","continent:2"],"perex":null,"customer_rating":null,"star_rating":null,"star_rating_unofficial":null,"thumbnail_url":null},{"id":"poi:16835151","level":"poi","rating":0.001,"quadkey":"300130212123231013","location":{"lat":-14.9252534,"lng":35.6328041},"bounding_box":null,"name":"Shower","name_suffix":"Southern Region, Malawi","url":"https://travel.sygic.com/go/poi:16835151","duration":3600,"marker":"other:shower","categories":[],"parent_ids":["region:53654","country:132","continent:2"],"perex":null,"customer_rating":null,"star_rating":null,"star_rating_unofficial":null,"thumbnail_url":null},{"id":"poi:16835407","level":"poi","rating":0.001,"quadkey":"300130212123231013","location":{"lat":-14.9253784,"lng":35.6328577},"bounding_box":null,"name":"Toilets","name_suffix":"Southern Region, Malawi","url":"https://travel.sygic.com/go/poi:16835407","duration":300,"marker":"other:toilets","categories":[],"parent_ids":["region:53654","country:132","continent:2"],"perex":null,"customer_rating":null,"star_rating":null,"star_rating_unofficial":null,"thumbnail_url":null},{"id":"poi:16835818","level":"poi","rating":0.001,"quadkey":"300130212102333232","location":{"lat":-14.7741162,"lng":35.588351},"bounding_box":null,"name":"Shop","name_suffix":"Southern Region, Malawi","url":"https://travel.sygic.com/go/poi:16835818","duration":3600,"marker":"shopping","categories":["shopping"],"parent_ids":["region:53654","country:132","continent:2"],"perex":null,"customer_rating":null,"star_rating":null,"star_rating_unofficial":null,"thumbnail_url":null},{"id":"poi:16835983","level":"poi","rating":0.001,"quadkey":"300130212210103223","location":{"lat":-14.9652079,"lng":35.389194},"bounding_box":null,"name":"Shop","name_suffix":"Southern Region, Malawi","url":"https://travel.sygic.com/go/poi:16835983","duration":3600,"marker":"shopping","categories":["shopping"],"parent_ids":["region:53654","country:132","continent:2"],"perex":null,"customer_rating":null,"star_rating":null,"star_rating_unofficial":null,"thumbnail_url":null},{"id":"poi:16836097","level":"poi","rating":0.001,"quadkey":"300130212310000300","location":{"lat":-14.9513337,"lng":35.6893914},"bounding_box":null,"name":"Drinking Water","name_suffix":"Southern Region, Malawi","url":"https://travel.sygic.com/go/poi:16836097","duration":3600,"marker":"other:drinking_water","categories":[],"parent_ids":["region:53654","country:132","continent:2"],"perex":null,"customer_rating":null,"star_rating":null,"star_rating_unofficial":null,"thumbnail_url":null},{"id":"poi:17304010","level":"poi","rating":0.001,"quadkey":"300121133333333122","location":{"lat":-13.9176256,"lng":33.7448822},"bounding_box":null,"name":"Hospital","name_suffix":"Central Region, Malawi","url":"https://travel.sygic.com/go/poi:17304010","duration":3600,"marker":"other:doctor:hospital","categories":["eating"],"parent_ids":["region:53536","country:132","continent:2"],"perex":null,"customer_rating":null,"star_rating":null,"star_rating_unofficial":null,"thumbnail_url":null},{"id":"poi:17704798","level":"poi","rating":0.001,"quadkey":"300130000310223313","location":{"lat":-11.6060393,"lng":34.2983262},"bounding_box":null,"name":"Jamrock","name_suffix":"Nkhata Bay, Malawi","url":"https://travel.sygic.com/go/poi:17704798","duration":3600,"marker":"eating:restaurant","categories":["eating"],"parent_ids":["city:428971","region:53555","country:132","continent:2"],"perex":null,"customer_rating":null,"star_rating":null,"star_rating_unofficial":null,"thumbnail_url":null},{"id":"poi:16820393","level":"poi","rating":0.001,"quadkey":"300130212123333330","location":{"lat":-14.9424709,"lng":35.6819582},"bounding_box":null,"name":"Toilets","name_suffix":"Southern Region, Malawi","url":"https://travel.sygic.com/go/poi:16820393","duration":300,"marker":"other:toilets","categories":[],"parent_ids":["region:53654","country:132","continent:2"],"perex":null,"customer_rating":null,"star_rating":null,"star_rating_unofficial":null,"thumbnail_url":null},{"id":"poi:16820397","level":"poi","rating":0.001,"quadkey":"300130212123333330","location":{"lat":-14.943448,"lng":35.6814926},"bounding_box":null,"name":"Toilets","name_suffix":"Southern Region, Malawi","url":"https://travel.sygic.com/go/poi:16820397","duration":300,"marker":"other:toilets","categories":[],"parent_ids":["region:53654","country:132","continent:2"],"perex":null,"customer_rating":null,"star_rating":null,"star_rating_unofficial":null,"thumbnail_url":null},{"id":"poi:16821106","level":"poi","rating":0.001,"quadkey":"300130212213313021","location":{"lat":-15.0860897,"lng":35.4993802},"bounding_box":null,"name":"Toilets","name_suffix":"Southern Region, Malawi","url":"https://travel.sygic.com/go/poi:16821106","duration":300,"marker":"other:toilets","categories":[],"parent_ids":["region:53654","country:132","continent:2"],"perex":null,"customer_rating":null,"star_rating":null,"star_rating_unofficial":null,"thumbnail_url":null},{"id":"poi:16821123","level":"poi","rating":0.001,"quadkey":"300130212132202112","location":{"lat":-14.9151068,"lng":35.6920478},"bounding_box":null,"name":"Shower","name_suffix":"Southern Region, Malawi","url":"https://travel.sygic.com/go/poi:16821123","duration":3600,"marker":"other:shower","categories":[],"parent_ids":["region:53654","country:132","continent:2"],"perex":null,"customer_rating":null,"star_rating":null,"star_rating_unofficial":null,"thumbnail_url":null},{"id":"poi:16821141","level":"poi","rating":0.001,"quadkey":"300130212132221200","location":{"lat":-14.9292091,"lng":35.6951836},"bounding_box":null,"name":"Shower","name_suffix":"Southern Region, Malawi","url":"https://travel.sygic.com/go/poi:16821141","duration":3600,"marker":"other:shower","categories":[],"parent_ids":["region:53654","country:132","continent:2"],"perex":null,"customer_rating":null,"star_rating":null,"star_rating_unofficial":null,"thumbnail_url":null},{"id":"poi:16821179","level":"poi","rating":0.001,"quadkey":"300130212132202103","location":{"lat":-14.9150868,"lng":35.6908871},"bounding_box":null,"name":"Shower","name_suffix":"Southern Region, Malawi","url":"https://travel.sygic.com/go/poi:16821179","duration":3600,"marker":"other:shower","categories":[],"parent_ids":["region:53654","country:132","continent:2"],"perex":null,"customer_rating":null,"star_rating":null,"star_rating_unofficial":null,"thumbnail_url":null},{"id":"poi:16821218","level":"poi","rating":0.001,"quadkey":"300130212132221200","location":{"lat":-14.929471,"lng":35.6947586},"bounding_box":null,"name":"Shower","name_suffix":"Southern Region, Malawi","url":"https://travel.sygic.com/go/poi:16821218","duration":3600,"marker":"other:shower","categories":[],"parent_ids":["region:53654","country:132","continent:2"],"perex":null,"customer_rating":null,"star_rating":null,"star_rating_unofficial":null,"thumbnail_url":null},{"id":"poi:16821591","level":"poi","rating":0.001,"quadkey":"300130212213133113","location":{"lat":-15.0638754,"lng":35.506608},"bounding_box":null,"name":"Toilets","name_suffix":"Southern Region, Malawi","url":"https://travel.sygic.com/go/poi:16821591","duration":300,"marker":"other:toilets","categories":[],"parent_ids":["region:53654","country:132","continent:2"],"perex":null,"customer_rating":null,"star_rating":null,"star_rating_unofficial":null,"thumbnail_url":null},{"id":"poi:16821775","level":"poi","rating":0.001,"quadkey":"300130212132221202","location":{"lat":-14.9309599,"lng":35.6955999},"bounding_box":null,"name":"Toilets","name_suffix":"Southern Region, Malawi","url":"https://travel.sygic.com/go/poi:16821775","duration":300,"marker":"other:toilets","categories":[],"parent_ids":["region:53654","country:132","continent:2"],"perex":null,"customer_rating":null,"star_rating":null,"star_rating_unofficial":null,"thumbnail_url":null},{"id":"poi:16821816","level":"poi","rating":0.001,"quadkey":"300130212302002332","location":{"lat":-15.0496976,"lng":35.5169786},"bounding_box":null,"name":"Shop","name_suffix":"Southern Region, Malawi","url":"https://travel.sygic.com/go/poi:16821816","duration":3600,"marker":"shopping","categories":["shopping"],"parent_ids":["region:53654","country:132","continent:2"],"perex":null,"customer_rating":null,"star_rating":null,"star_rating_unofficial":null,"thumbnail_url":null},{"id":"poi:16821828","level":"poi","rating":0.001,"quadkey":"300130212213133113","location":{"lat":-15.0639319,"lng":35.5071033},"bounding_box":null,"name":"Shop","name_suffix":"Southern Region, Malawi","url":"https://travel.sygic.com/go/poi:16821828","duration":3600,"marker":"shopping","categories":["shopping"],"parent_ids":["region:53654","country:132","continent:2"],"perex":null,"customer_rating":null,"star_rating":null,"star_rating_unofficial":null,"thumbnail_url":null},{"id":"poi:16821840","level":"poi","rating":0.001,"quadkey":"300130212123123233","location":{"lat":-14.902075,"lng":35.6556205},"bounding_box":null,"name":"Toilets","name_suffix":"Southern Region, Malawi","url":"https://travel.sygic.com/go/poi:16821840","duration":300,"marker":"other:toilets","categories":[],"parent_ids":["region:53654","country:132","continent:2"],"perex":null,"customer_rating":null,"star_rating":null,"star_rating_unofficial":null,"thumbnail_url":null},{"id":"poi:16821883","level":"poi","rating":0.001,"quadkey":"300130212123311030","location":{"lat":-14.9055031,"lng":35.6757118},"bounding_box":null,"name":"Shower","name_suffix":"Southern Region, Malawi","url":"https://travel.sygic.com/go/poi:16821883","duration":3600,"marker":"other:shower","categories":[],"parent_ids":["region:53654","country:132","continent:2"],"perex":null,"customer_rating":null,"star_rating":null,"star_rating_unofficial":null,"thumbnail_url":null},{"id":"poi:16821922","level":"poi","rating":0.001,"quadkey":"300130212132202130","location":{"lat":-14.9155909,"lng":35.6926908},"bounding_box":null,"name":"Shower","name_suffix":"Southern Region, Malawi","url":"https://travel.sygic.com/go/poi:16821922","duration":3600,"marker":"other:shower","categories":[],"parent_ids":["region:53654","country:132","continent:2"],"perex":null,"customer_rating":null,"star_rating":null,"star_rating_unofficial":null,"thumbnail_url":null},{"id":"poi:16821990","level":"poi","rating":0.001,"quadkey":"300130212302020232","location":{"lat":-15.0603287,"lng":35.5118489},"bounding_box":null,"name":"Borehole","name_suffix":"Southern Region, Malawi","url":"https://travel.sygic.com/go/poi:16821990","duration":3600,"marker":"other:drinking_water","categories":[],"parent_ids":["region:53654","country:132","continent:2"],"perex":null,"customer_rating":null,"star_rating":null,"star_rating_unofficial":null,"thumbnail_url":null},{"id":"poi:16822643","level":"poi","rating":0.001,"quadkey":"300130212132221203","location":{"lat":-14.9302206,"lng":35.6962781},"bounding_box":null,"name":"Shower","name_suffix":"Southern Region, Malawi","url":"https://travel.sygic.com/go/poi:16822643","duration":3600,"marker":"other:shower","categories":[],"parent_ids":["region:53654","country:132","continent:2"],"perex":null,"customer_rating":null,"star_rating":null,"star_rating_unofficial":null,"thumbnail_url":null},{"id":"poi:16822692","level":"poi","rating":0.001,"quadkey":"300130212123010123","location":{"lat":-14.8638304,"lng":35.6253092},"bounding_box":null,"name":"Toilets","name_suffix":"Southern Region, Malawi","url":"https://travel.sygic.com/go/poi:16822692","duration":300,"marker":"other:toilets","categories":[],"parent_ids":["region:53654","country:132","continent:2"],"perex":null,"customer_rating":null,"star_rating":null,"star_rating_unofficial":null,"thumbnail_url":null},{"id":"poi:16822709","level":"poi","rating":0.001,"quadkey":"300130212213133113","location":{"lat":-15.0639344,"lng":35.5069894},"bounding_box":null,"name":"Shower","name_suffix":"Southern Region, Malawi","url":"https://travel.sygic.com/go/poi:16822709","duration":3600,"marker":"other:shower","categories":[],"parent_ids":["region:53654","country:132","continent:2"],"perex":null,"customer_rating":null,"star_rating":null,"star_rating_unofficial":null,"thumbnail_url":null},{"id":"poi:16822756","level":"poi","rating":0.001,"quadkey":"300130212132220311","location":{"lat":-14.9301591,"lng":35.6944385},"bounding_box":null,"name":"Toilets","name_suffix":"Southern Region, Malawi","url":"https://travel.sygic.com/go/poi:16822756","duration":300,"marker":"other:toilets","categories":[],"parent_ids":["region:53654","country:132","continent:2"],"perex":null,"customer_rating":null,"star_rating":null,"star_rating_unofficial":null,"thumbnail_url":null},{"id":"poi:16822904","level":"poi","rating":0.001,"quadkey":"300130212300213312","location":{"lat":-15.0047257,"lng":35.5491161},"bounding_box":null,"name":"Toilets","name_suffix":"Southern Region, Malawi","url":"https://travel.sygic.com/go/poi:16822904","duration":300,"marker":"other:toilets","categories":[],"parent_ids":["region:53654","country:132","continent:2"],"perex":null,"customer_rating":null,"star_rating":null,"star_rating_unofficial":null,"thumbnail_url":null},{"id":"poi:16822920","level":"poi","rating":0.001,"quadkey":"300130212123010133","location":{"lat":-14.864308,"lng":35.6277251},"bounding_box":null,"name":"Shower","name_suffix":"Southern Region, Malawi","url":"https://travel.sygic.com/go/poi:16822920","duration":3600,"marker":"other:shower","categories":[],"parent_ids":["region:53654","country:132","continent:2"],"perex":null,"customer_rating":null,"star_rating":null,"star_rating_unofficial":null,"thumbnail_url":null},{"id":"poi:16822953","level":"poi","rating":0.001,"quadkey":"300130212123311032","location":{"lat":-14.9068315,"lng":35.6764158},"bounding_box":null,"name":"Shower","name_suffix":"Southern Region, Malawi","url":"https://travel.sygic.com/go/poi:16822953","duration":3600,"marker":"other:shower","categories":[],"parent_ids":["region:53654","country:132","continent:2"],"perex":null,"customer_rating":null,"star_rating":null,"star_rating_unofficial":null,"thumbnail_url":null},{"id":"poi:16822988","level":"poi","rating":0.001,"quadkey":"300130212123120331","location":{"lat":-14.8901524,"lng":35.6498095},"bounding_box":null,"name":"Ntuluko Mosque","name_suffix":"Southern Region, Malawi","url":"https://travel.sygic.com/go/poi:16822988","duration":1800,"marker":"other:place_of_worship","categories":[],"parent_ids":["region:53654","country:132","continent:2"],"perex":null,"customer_rating":null,"star_rating":null,"star_rating_unofficial":null,"thumbnail_url":null},{"id":"poi:16823155","level":"poi","rating":0.001,"quadkey":"300130212123123103","location":{"lat":-14.8940282,"lng":35.658818},"bounding_box":null,"name":"Shop","name_suffix":"Southern Region, Malawi","url":"https://travel.sygic.com/go/poi:16823155","duration":3600,"marker":"shopping","categories":["shopping"],"parent_ids":["region:53654","country:132","continent:2"],"perex":null,"customer_rating":null,"star_rating":null,"star_rating_unofficial":null,"thumbnail_url":null},{"id":"poi:16856669","level":"poi","rating":0.001,"quadkey":"300130212130121223","location":{"lat":-14.80595,"lng":35.7408482},"bounding_box":null,"name":"Toilets","name_suffix":"Southern Region, Malawi","url":"https://travel.sygic.com/go/poi:16856669","duration":300,"marker":"other:toilets","categories":[],"parent_ids":["region:53654","country:132","continent:2"],"perex":null,"customer_rating":null,"star_rating":null,"star_rating_unofficial":null,"thumbnail_url":null},{"id":"poi:16856847","level":"poi","rating":0.001,"quadkey":"300130212130210202","location":{"lat":-14.8240511,"lng":35.7069345},"bounding_box":null,"name":"Toilets","name_suffix":"Southern Region, Malawi","url":"https://travel.sygic.com/go/poi:16856847","duration":300,"marker":"other:toilets","categories":[],"parent_ids":["region:53654","country:132","continent:2"],"perex":null,"customer_rating":null,"star_rating":null,"star_rating_unofficial":null,"thumbnail_url":null},{"id":"poi:16856970","level":"poi","rating":0.001,"quadkey":"300130212130121221","location":{"lat":-14.8048003,"lng":35.7404061},"bounding_box":null,"name":"Shower","name_suffix":"Southern Region, Malawi","url":"https://travel.sygic.com/go/poi:16856970","duration":3600,"marker":"other:shower","categories":[],"parent_ids":["region:53654","country:132","continent:2"],"perex":null,"customer_rating":null,"star_rating":null,"star_rating_unofficial":null,"thumbnail_url":null},{"id":"poi:16857170","level":"poi","rating":0.001,"quadkey":"300130212130201123","location":{"lat":-14.8219184,"lng":35.7015861},"bounding_box":null,"name":"Shower","name_suffix":"Southern Region, Malawi","url":"https://travel.sygic.com/go/poi:16857170","duration":3600,"marker":"other:shower","categories":[],"parent_ids":["region:53654","country:132","continent:2"],"perex":null,"customer_rating":null,"star_rating":null,"star_rating_unofficial":null,"thumbnail_url":null},{"id":"poi:16857349","level":"poi","rating":0.001,"quadkey":"300130212130210203","location":{"lat":-14.8241471,"lng":35.7081622},"bounding_box":null,"name":"Toilets","name_suffix":"Southern Region, Malawi","url":"https://travel.sygic.com/go/poi:16857349","duration":300,"marker":"other:toilets","categories":[],"parent_ids":["region:53654","country:132","continent:2"],"perex":null,"customer_rating":null,"star_rating":null,"star_rating_unofficial":null,"thumbnail_url":null},{"id":"poi:16857427","level":"poi","rating":0.001,"quadkey":"300130212130201123","location":{"lat":-14.822218,"lng":35.7015768},"bounding_box":null,"name":"Toilets","name_suffix":"Southern Region, Malawi","url":"https://travel.sygic.com/go/poi:16857427","duration":300,"marker":"other:toilets","categories":[],"parent_ids":["region:53654","country:132","continent:2"],"perex":null,"customer_rating":null,"star_rating":null,"star_rating_unofficial":null,"thumbnail_url":null},{"id":"poi:16857578","level":"poi","rating":0.001,"quadkey":"300130212130210022","location":{"lat":-14.8224746,"lng":35.7056598},"bounding_box":null,"name":"Toilets","name_suffix":"Southern Region, Malawi","url":"https://travel.sygic.com/go/poi:16857578","duration":300,"marker":"other:toilets","categories":[],"parent_ids":["region:53654","country:132","continent:2"],"perex":null,"customer_rating":null,"star_rating":null,"star_rating_unofficial":null,"thumbnail_url":null},{"id":"poi:16857624","level":"poi","rating":0.001,"quadkey":"300130212130210202","location":{"lat":-14.8243707,"lng":35.7068997},"bounding_box":null,"name":"Toilets","name_suffix":"Southern Region, Malawi","url":"https://travel.sygic.com/go/poi:16857624","duration":300,"marker":"other:toilets","categories":[],"parent_ids":["region:53654","country:132","continent:2"],"perex":null,"customer_rating":null,"star_rating":null,"star_rating_unofficial":null,"thumbnail_url":null},{"id":"poi:16857977","level":"poi","rating":0.001,"quadkey":"300130212301202020","location":{"lat":-15.0014828,"lng":35.5961291},"bounding_box":null,"name":"Toilets","name_suffix":"Southern Region, Malawi","url":"https://travel.sygic.com/go/poi:16857977","duration":300,"marker":"other:toilets","categories":[],"parent_ids":["region:53654","country:132","continent:2"],"perex":null,"customer_rating":null,"star_rating":null,"star_rating_unofficial":null,"thumbnail_url":null},{"id":"poi:16858267","level":"poi","rating":0.001,"quadkey":"300130212123133232","location":{"lat":-14.9021597,"lng":35.6764695},"bounding_box":null,"name":"Shower","name_suffix":"Southern Region, Malawi","url":"https://travel.sygic.com/go/poi:16858267","duration":3600,"marker":"other:shower","categories":[],"parent_ids":["region:53654","country:132","continent:2"],"perex":null,"customer_rating":null,"star_rating":null,"star_rating_unofficial":null,"thumbnail_url":null},{"id":"poi:16858789","level":"poi","rating":0.001,"quadkey":"300130212130210210","location":{"lat":-14.823867,"lng":35.7090649},"bounding_box":null,"name":"Toilets","name_suffix":"Southern Region, Malawi","url":"https://travel.sygic.com/go/poi:16858789","duration":300,"marker":"other:toilets","categories":[],"parent_ids":["region:53654","country:132","continent:2"],"perex":null,"customer_rating":null,"star_rating":null,"star_rating_unofficial":null,"thumbnail_url":null},{"id":"poi:16858804","level":"poi","rating":0.001,"quadkey":"300130212130210212","location":{"lat":-14.8243421,"lng":35.7094954},